{
"type": "FeatureCollection",
"crs": { "type": "name", "properties": { "name": "urn:ogc:def:crs:OGC:1.3:CRS84" } },
                                                                                
"features": [
{ "type": "Feature", "properties": { "Module": "FoodFacility", "Stage": "Active", "Status": "Permitted", "business_": "7600007", "name": "1860 Saloon & Hard Shell Cafe", "address": "1860 S 9Th", "city": "St Louis", "state": "MO", "postal_co": "63104", "PhoneDayN": "231-1860", "PhoneDayE": null, "addrtype": "Permitted", "addrlocat": "street_address" }, "geometry": { "type": "Point", "coordinates": [ -90.2039682, 38.60842 ] } },
{ "type": "Feature", "properties": { "Module": "FoodFacility", "Stage": "Active", "Status": "Permitted", "business_": "1400655", "name": "2 Girls 4 Wheels", "address": "1335 Convention Plz", "city": "St Louis", "state": "MO", "postal_co": "63103", "PhoneDayN": "363-8154", "PhoneDayE": null, "addrtype": "Permitted", "addrlocat": "street_address" }, "geometry": { "type": "Point", "coordinates": [ -90.1980619, 38.633941 ] } },
{ "type": "Feature", "properties": { "Module": "FoodFacility", "Stage": "Active", "Status": "Permitted", "business_": "1400269", "name": "2 Schae Cafe", "address": "275 UNION, STE 100", "city": "St Louis", "state": "MO", "postal_co": "63108", "PhoneDayN": "361-5333", "PhoneDayE": null, "addrtype": "Permitted", "addrlocat": "subpremise" }, "geometry": { "type": "Point", "coordinates": [ -90.27462, 38.6473033 ] } },
{ "type": "Feature", "properties": { "Module": "FoodFacility", "Stage": "Active", "Status": "Permitted", "business_": "1400428", "name": "2720 Cherokee Llc", "address": "2720 CHEROKEE", "city": "St Louis", "state": "MO", "postal_co": "63118", "PhoneDayN": "276-2700", "PhoneDayE": null, "addrtype": "Permitted", "addrlocat": "street_address" }, "geometry": { "type": "Point", "coordinates": [ -90.2284334, 38.5934567 ] } },
{ "type": "Feature", "properties": { "Module": "FoodFacility", "Stage": "Active", "Status": "Permitted", "business_": "MWHN-974R2C", "name": "33 Wine Bar", "address": "1911-13 Park Ave", "city": "St Louis", "state": "MO", "postal_co": "63104", "PhoneDayN": "231-9463", "PhoneDayE": null, "addrtype": "Permitted", "addrlocat": "street_address" }, "geometry": { "type": "Point", "coordinates": [ -90.212577, 38.617507 ] } },
{ "type": "Feature", "properties": { "Module": "FoodFacility", "Stage": "Active", "Status": "Permitted", "business_": "37430", "name": "34 Club", "address": "34 N EUCLID", "city": "St Louis", "state": "MO", "postal_co": "63108", "PhoneDayN": "367-6674", "PhoneDayE": null, "addrtype": "Permitted", "addrlocat": "street_address" }, "geometry": { "type": "Point", "coordinates": [ -90.2618241, 38.6413112 ] } },
{ "type": "Feature", "properties": { "Module": "FoodFacility", "Stage": "Active", "Status": "Permitted", "business_": "KHUS-9K2S2W", "name": "3500 Winehaus", "address": "3500 Watson", "city": "St Louis", "state": "MO", "postal_co": "63139", "PhoneDayN": null, "PhoneDayE": null, "addrtype": "Permitted", "addrlocat": "street_address" }, "geometry": { "type": "Point", "coordinates": [ -90.2999977, 38.5990793 ] } },
{ "type": "Feature", "properties": { "Module": "FoodFacility", "Stage": "Active", "Status": "Permitted", "business_": "11000070", "name": "4 Hands Brewing Co", "address": "1220 S 8TH St", "city": "St Louis", "state": "MO", "postal_co": "63104", "PhoneDayN": "436-1555", "PhoneDayE": null, "addrtype": "Permitted", "addrlocat": "street_address" }, "geometry": { "type": "Point", "coordinates": [ -90.197593, 38.6149562 ] } },
{ "type": "Feature", "properties": { "Module": "FoodFacility", "Stage": "Active", "Status": "Permitted", "business_": "PMAY-8UKR5M", "name": "400 Olive @ Hilton", "address": "400 Olive", "city": "St Louis", "state": "MO", "postal_co": "63102", "PhoneDayN": "554-7098", "PhoneDayE": null, "addrtype": "Permitted", "addrlocat": "street_address" }, "geometry": { "type": "Point", "coordinates": [ -90.1882299, 38.6273407 ] } },
{ "type": "Feature", "properties": { "Module": "FoodFacility", "Stage": "Active", "Status": "Permitted", "business_": "1400258", "name": "6 North Cafe", "address": "701 Market Suite 50", "city": "St Louis", "state": "MO", "postal_co": "63101", "PhoneDayN": "241-4333", "PhoneDayE": null, "addrtype": "Permitted", "addrlocat": "subpremise" }, "geometry": { "type": "Point", "coordinates": [ -90.1924885, 38.6266808 ] } },
{ "type": "Feature", "properties": { "Module": "FoodFacility", "Stage": "Active", "Status": "Permitted", "business_": "1200769", "name": "7-Eleven", "address": "5604 Gravois", "city": "St Louis", "state": "MO", "postal_co": "63116", "PhoneDayN": "353-6630", "PhoneDayE": null, "addrtype": "Permitted", "addrlocat": "street_address" }, "geometry": { "type": "Point", "coordinates": [ -90.272087, 38.577525 ] } },
{ "type": "Feature", "properties": { "Module": "FoodFacility", "Stage": "Active", "Status": "Permitted", "business_": "1200769", "name": "7-Eleven", "address": "3160 MORGANFORD", "city": "St Louis", "state": "MO", "postal_co": "63116", "PhoneDayN": "664-8166", "PhoneDayE": null, "addrtype": "Permitted", "addrlocat": "street_address" }, "geometry": { "type": "Point", "coordinates": [ -90.2610273, 38.6022595 ] } },
{ "type": "Feature", "properties": { "Module": "FoodFacility", "Stage": "Active", "Status": "Permitted", "business_": "1200769", "name": "7-Eleven", "address": "5350 Chippewa", "city": "St Louis", "state": "MO", "postal_co": "63109", "PhoneDayN": "481-5753", "PhoneDayE": null, "addrtype": "Permitted", "addrlocat": "street_address" }, "geometry": { "type": "Point", "coordinates": [ -90.283019, 38.591966 ] } },
{ "type": "Feature", "properties": { "Module": "FoodFacility", "Stage": "Active", "Status": "Permitted", "business_": "1200769", "name": "7-Eleven", "address": "509 Bates St", "city": "St Louis", "state": "MO", "postal_co": "63111", "PhoneDayN": "352-1711", "PhoneDayE": null, "addrtype": "Permitted", "addrlocat": "street_address" }, "geometry": { "type": "Point", "coordinates": [ -90.2464457, 38.5647789 ] } },
{ "type": "Feature", "properties": { "Module": "FoodFacility", "Stage": "Active", "Status": "Permitted", "business_": "MWHN-8WLRE6", "name": "7-Eleven #19279-E", "address": "2807 Sulphur", "city": "St Louis", "state": "MO", "postal_co": "63139", "PhoneDayN": "645-3560", "PhoneDayE": null, "addrtype": "Permitted", "addrlocat": "street_address" }, "geometry": { "type": "Point", "coordinates": [ -90.2900238, 38.6097878 ] } },
{ "type": "Feature", "properties": { "Module": "FoodFacility", "Stage": "Active", "Status": "Permitted", "business_": "1200863", "name": "7-Eleven #19457", "address": "4948 Christy", "city": "St Louis", "state": "MO", "postal_co": "63116", "PhoneDayN": "481-3290", "PhoneDayE": null, "addrtype": "Permitted", "addrlocat": "street_address" }, "geometry": { "type": "Point", "coordinates": [ -90.2762918, 38.5840297 ] } },
{ "type": "Feature", "properties": { "Module": "FoodFacility", "Stage": "Active", "Status": "Permitted", "business_": "1200839", "name": "7-Eleven #19501", "address": "201 N 17Th", "city": "St Louis", "state": "MO", "postal_co": "63103", "PhoneDayN": "421-2388", "PhoneDayE": null, "addrtype": "Permitted", "addrlocat": "street_address" }, "geometry": { "type": "Point", "coordinates": [ -90.2049149, 38.6307357 ] } },
{ "type": "Feature", "properties": { "Module": "FoodFacility", "Stage": "Active", "Status": "Permitted", "business_": "1200768", "name": "7-Eleven #20883", "address": "2607 GRAVOIS", "city": "St Louis", "state": "MO", "postal_co": "63118", "PhoneDayN": "771-8905", "PhoneDayE": null, "addrtype": "Permitted", "addrlocat": "street_address" }, "geometry": { "type": "Point", "coordinates": [ -90.223578, 38.6051346 ] } },
{ "type": "Feature", "properties": { "Module": "FoodFacility", "Stage": "Active", "Status": "Permitted", "business_": "1200754", "name": "7-Eleven #27408A", "address": "6909 SOUTHWEST", "city": "St Louis", "state": "MO", "postal_co": "63143", "PhoneDayN": "644-0711", "PhoneDayE": null, "addrtype": "Permitted", "addrlocat": "street_address" }, "geometry": { "type": "Point", "coordinates": [ -90.308464, 38.613325 ] } },
{ "type": "Feature", "properties": { "Module": "FoodFacility", "Stage": "Active", "Status": "Permitted", "business_": "35839", "name": "911 Head Start #1", "address": "911 N Spring", "city": "St Louis", "state": "MO", "postal_co": "63108", "PhoneDayN": "615-3600", "PhoneDayE": null, "addrtype": "Permitted", "addrlocat": "street_address" }, "geometry": { "type": "Point", "coordinates": [ -90.2336936, 38.6430278 ] } },
{ "type": "Feature", "properties": { "Module": "FoodFacility", "Stage": "Active", "Status": "Permitted", "business_": "10100011", "name": "9th Street Bar & Grill", "address": "811 N 9Th", "city": "St Louis", "state": "MO", "postal_co": "63101", "PhoneDayN": "421-4000", "PhoneDayE": "x107", "addrtype": "Permitted", "addrlocat": "street_address" }, "geometry": { "type": "Point", "coordinates": [ -90.192619, 38.6329332 ] } },
{ "type": "Feature", "properties": { "Module": "FoodFacility", "Stage": "Active", "Status": "Permitted", "business_": "MWIS-9H3QDN", "name": "A & M Grocery", "address": "2800 N Sarah", "city": "St Louis", "state": "MO", "postal_co": "63115", "PhoneDayN": null, "PhoneDayE": null, "addrtype": "Permitted", "addrlocat": "street_address" }, "geometry": { "type": "Point", "coordinates": [ -90.2319537, 38.6593367 ] } },
{ "type": "Feature", "properties": { "Module": "FoodFacility", "Stage": "Active", "Status": "Permitted", "business_": "1200947", "name": "A & S Mesnica", "address": "4905 BLOW", "city": "St Louis", "state": "MO", "postal_co": null, "PhoneDayN": "351-0068", "PhoneDayE": null, "addrtype": "Permitted", "addrlocat": "street_address" }, "geometry": { "type": "Point", "coordinates": [ -90.2866004, 38.5689227 ] } },
{ "type": "Feature", "properties": { "Module": "FoodFacility", "Stage": "Active", "Status": "Permitted", "business_": "38389", "name": "A B Academy", "address": "2705 Potomac Ave", "city": "St Louis", "state": "MO", "postal_co": "63118", "PhoneDayN": "773-8277", "PhoneDayE": null, "addrtype": "Permitted", "addrlocat": "street_address" }, "geometry": { "type": "Point", "coordinates": [ -90.22839, 38.59204 ] } },
{ "type": "Feature", "properties": { "Module": "FoodFacility", "Stage": "Active", "Status": "Permitted", "business_": "37780", "name": "A Fresh Gathering", "address": "3437 CAROLINE, ROOM 3076", "city": "St Louis", "state": "MO", "postal_co": "63104", "PhoneDayN": "977-8523", "PhoneDayE": null, "addrtype": "Permitted", "addrlocat": "subpremise" }, "geometry": { "type": "Point", "coordinates": [ -90.2338194, 38.6218659 ] } },
{ "type": "Feature", "properties": { "Module": "FoodFacility", "Stage": "Active", "Status": "Permitted", "business_": "18600", "name": "A-1 Wok Restaurant", "address": "1825 Gravois", "city": "St Louis", "state": "MO", "postal_co": "63104", "PhoneDayN": "776-8282", "PhoneDayE": null, "addrtype": "Permitted", "addrlocat": "street_address" }, "geometry": { "type": "Point", "coordinates": [ -90.2138722, 38.6079993 ] } },
{ "type": "Feature", "properties": { "Module": "FoodFacility", "Stage": "Active", "Status": "Permitted", "business_": "MWIS-9H7LGG", "name": "AB Roof Deck", "address": "601 - Clark - Ste 104 St", "city": "SAINT LOUIS", "state": "MO", "postal_co": "63102", "PhoneDayN": null, "PhoneDayE": null, "addrtype": "Permitted", "addrlocat": "subpremise" }, "geometry": { "type": "Point", "coordinates": [ -90.1916746, 38.6236723 ] } },
{ "type": "Feature", "properties": { "Module": "FoodFacility", "Stage": "Active", "Status": "Permitted", "business_": "1400327", "name": "Absoluti Goosed", "address": "3196 S GRAND", "city": "St Louis", "state": "MO", "postal_co": "63118", "PhoneDayN": "771-9300", "PhoneDayE": null, "addrtype": "Permitted", "addrlocat": "street_address" }, "geometry": { "type": "Point", "coordinates": [ -90.2424619, 38.5993175 ] } },
{ "type": "Feature", "properties": { "Module": "FoodFacility", "Stage": "Active", "Status": "Permitted", "business_": "MWHN-9A4P72", "name": "Adam Market", "address": "1245-47 Walton Ave", "city": "SAINT LOUIS", "state": "MO", "postal_co": "63113", "PhoneDayN": "367-3199", "PhoneDayE": null, "addrtype": "Permitted", "addrlocat": "street_address" }, "geometry": { "type": "Point", "coordinates": [ -90.256743, 38.658426 ] } },
{ "type": "Feature", "properties": { "Module": "FoodFacility", "Stage": "Active", "Status": "Permitted", "business_": "MWHN-9A4P72", "name": "Adam Market", "address": "1245-47 Walton Ave", "city": "SAINT LOUIS", "state": "MO", "postal_co": "63113", "PhoneDayN": "367-3199", "PhoneDayE": null, "addrtype": "Permitted", "addrlocat": "street_address" }, "geometry": { "type": "Point", "coordinates": [ -90.256743, 38.658426 ] } },
{ "type": "Feature", "properties": { "Module": "FoodFacility", "Stage": "Active", "Status": "Permitted", "business_": "MWHN-9BAJ5Z", "name": "Adam's Smokehouse", "address": "2819 Watson", "city": "St Louis", "state": "MO", "postal_co": "63139", "PhoneDayN": "875-9890", "PhoneDayE": null, "addrtype": "Permitted", "addrlocat": "street_address" }, "geometry": { "type": "Point", "coordinates": [ -90.2901031, 38.6094017 ] } },
{ "type": "Feature", "properties": { "Module": "FoodFacility", "Stage": "Active", "Status": "Permitted", "business_": "1400188", "name": "Adapt Of Missouri Inc", "address": "2301 Hampton", "city": "St Louis", "state": "MO", "postal_co": "63139", "PhoneDayN": null, "PhoneDayE": null, "addrtype": "Permitted", "addrlocat": "street_address" }, "geometry": { "type": "Point", "coordinates": [ -90.287918, 38.615054 ] } },
{ "type": "Feature", "properties": { "Module": "FoodFacility", "Stage": "Active", "Status": "Permitted", "business_": "37437", "name": "Adelaide Food Market", "address": "4129 W Florissant Ave", "city": "St Louis", "state": "MO", "postal_co": "63115", "PhoneDayN": "383-5552", "PhoneDayE": null, "addrtype": "Permitted", "addrlocat": "street_address" }, "geometry": { "type": "Point", "coordinates": [ -90.2198862, 38.6748564 ] } },
{ "type": "Feature", "properties": { "Module": "FoodFacility", "Stage": "Active", "Status": "Permitted", "business_": "1200888", "name": "Adelaide Food Market Inc", "address": "4129 W FLORISSANT", "city": "St Louis", "state": "MO", "postal_co": "63115", "PhoneDayN": "731-1978", "PhoneDayE": null, "addrtype": "Permitted", "addrlocat": "street_address" }, "geometry": { "type": "Point", "coordinates": [ -90.2198862, 38.6748564 ] } },
{ "type": "Feature", "properties": { "Module": "FoodFacility", "Stage": "Active", "Status": "Permitted", "business_": "18644", "name": "Adriana's", "address": "5101 SHAW", "city": "St Louis", "state": "MO", "postal_co": "63110", "PhoneDayN": "773-3733", "PhoneDayE": null, "addrtype": "Permitted", "addrlocat": "street_address" }, "geometry": { "type": "Point", "coordinates": [ -90.270649, 38.617977 ] } },
{ "type": "Feature", "properties": { "Module": "FoodFacility", "Stage": "Active", "Status": "Permitted", "business_": "1200893", "name": "Adso Inc", "address": "3710 N GRAND", "city": "St Louis", "state": "MO", "postal_co": "63107", "PhoneDayN": "652-8933", "PhoneDayE": null, "addrtype": "Permitted", "addrlocat": "street_address" }, "geometry": { "type": "Point", "coordinates": [ -90.2161308, 38.6614125 ] } },
{ "type": "Feature", "properties": { "Module": "FoodFacility", "Stage": "Active", "Status": "Permitted", "business_": "MLEN-8X5M7M", "name": "Adventure Learning Center", "address": "5440 Gravois", "city": "St Louis", "state": "MO", "postal_co": "63116", "PhoneDayN": "353-1026", "PhoneDayE": null, "addrtype": "Permitted", "addrlocat": "street_address" }, "geometry": { "type": "Point", "coordinates": [ -90.2704179, 38.578387 ] } },
{ "type": "Feature", "properties": { "Module": "FoodFacility", "Stage": "Active", "Status": "Permitted", "business_": "MWIS-9CXKND", "name": "AFC Sushi @ Schnuck's #143", "address": "3430 S Grand", "city": "St Louis", "state": "MO", "postal_co": "63118", "PhoneDayN": "772-5500", "PhoneDayE": null, "addrtype": "Permitted", "addrlocat": "street_address" }, "geometry": { "type": "Point", "coordinates": [ -90.2425041, 38.5950044 ] } },
{ "type": "Feature", "properties": { "Module": "FoodFacility", "Stage": "Active", "Status": "Permitted", "business_": "PMAY-8YYKDU", "name": "AFC Sushi @ Schnucks #258", "address": "60A Hampton Village", "city": "SAINT LOUIS", "state": "MO", "postal_co": "63109", "PhoneDayN": "353-5060", "PhoneDayE": null, "addrtype": "Permitted", "addrlocat": "street_address" }, "geometry": { "type": "Point", "coordinates": [ -90.2935741, 38.5918267 ] } },
{ "type": "Feature", "properties": { "Module": "FoodFacility", "Stage": "Active", "Status": "Permitted", "business_": "KHUS-9QBQWT", "name": "Afghan Bread House", "address": "4039 Gravois", "city": "SAINT LOUIS", "state": "MO", "postal_co": "63119", "PhoneDayN": null, "PhoneDayE": null, "addrtype": "Permitted", "addrlocat": "street_address" }, "geometry": { "type": "Point", "coordinates": [ -90.2543111, 38.5901633 ] } },
{ "type": "Feature", "properties": { "Module": "FoodFacility", "Stage": "Active", "Status": "Permitted", "business_": "11000071", "name": "Afghan Market", "address": "3732 S GRAND", "city": "St Louis", "state": "MO", "postal_co": "63118", "PhoneDayN": "664-5555", "PhoneDayE": null, "addrtype": "Permitted", "addrlocat": "street_address" }, "geometry": { "type": "Point", "coordinates": [ -90.243835, 38.589045 ] } },
{ "type": "Feature", "properties": { "Module": "FoodFacility", "Stage": "Active", "Status": "Permitted", "business_": "1201048", "name": "African Grocery Store", "address": "4075 S Grand", "city": "St Louis", "state": "MO", "postal_co": "63118", "PhoneDayN": "761-1301", "PhoneDayE": null, "addrtype": "Permitted", "addrlocat": "street_address" }, "geometry": { "type": "Point", "coordinates": [ -90.244883, 38.582639 ] } },
{ "type": "Feature", "properties": { "Module": "FoodFacility", "Stage": "Active", "Status": "Permitted", "business_": "MWHN-953NR2", "name": "African Naturals", "address": "4511 S Kingshighway", "city": "SAINT LOUIS", "state": "MO", "postal_co": "63109", "PhoneDayN": "255-4258", "PhoneDayE": null, "addrtype": "Permitted", "addrlocat": "street_address" }, "geometry": { "type": "Point", "coordinates": [ -90.2762936, 38.5875291 ] } },
{ "type": "Feature", "properties": { "Module": "FoodFacility", "Stage": "Active", "Status": "Permitted", "business_": "1200417", "name": "Agape Adult Day Health Center", "address": "915 N TAYLOR", "city": "St Louis", "state": "MO", "postal_co": "63108", "PhoneDayN": "652-5683", "PhoneDayE": null, "addrtype": "Permitted", "addrlocat": "street_address" }, "geometry": { "type": "Point", "coordinates": [ -90.2535599, 38.652351 ] } },
{ "type": "Feature", "properties": { "Module": "FoodFacility", "Stage": "Active", "Status": "Pending", "business_": "#N\/A", "name": "Aintee's Soulful Kitchen", "address": "1430 Olive St Suite 100 B", "city": "SAINT LOUIS", "state": "MO", "postal_co": "63103", "PhoneDayN": "489-8652", "PhoneDayE": null, "addrtype": "#N\/A", "addrlocat": "subpremise" }, "geometry": { "type": "Point", "coordinates": [ -90.2012398, 38.6301843 ] } },
{ "type": "Feature", "properties": { "Module": "FoodFacility", "Stage": "Active", "Status": "Permitted", "business_": "21048", "name": "Akins Health Care", "address": "4432 W BELLE", "city": "St Louis", "state": "MO", "postal_co": "63108", "PhoneDayN": "652-8908", "PhoneDayE": null, "addrtype": "Permitted", "addrlocat": "street_address" }, "geometry": { "type": "Point", "coordinates": [ -90.2501807, 38.6515002 ] } },
{ "type": "Feature", "properties": { "Module": "FoodFacility", "Stage": "Active", "Status": "Permitted", "business_": "MWHN-8YFLL2", "name": "Al Chappelle Comm Ctr", "address": "1401 Lasalle", "city": "SAINT LOUIS", "state": "MO", "postal_co": "63104", "PhoneDayN": "241-8319", "PhoneDayE": null, "addrtype": "Permitted", "addrlocat": "street_address" }, "geometry": { "type": "Point", "coordinates": [ -90.205035, 38.618578 ] } },
{ "type": "Feature", "properties": { "Module": "FoodFacility", "Stage": "Active", "Status": "Permitted", "business_": "19793", "name": "Al Smith's Feasting Fox", "address": "4200 S GRAND", "city": "St Louis", "state": "MO", "postal_co": "63111", "PhoneDayN": "352-3500", "PhoneDayE": null, "addrtype": "Permitted", "addrlocat": "street_address" }, "geometry": { "type": "Point", "coordinates": [ -90.2439551, 38.5807601 ] } },
{ "type": "Feature", "properties": { "Module": "FoodFacility", "Stage": "Active", "Status": "Permitted", "business_": "16742", "name": "Alan Blest Amvet Post #6", "address": "2718 CLIFTON", "city": "St Louis", "state": "MO", "postal_co": "63139", "PhoneDayN": "781-4071", "PhoneDayE": null, "addrtype": "Permitted", "addrlocat": "street_address" }, "geometry": { "type": "Point", "coordinates": [ -90.292346, 38.6120823 ] } },
{ "type": "Feature", "properties": { "Module": "FoodFacility", "Stage": "Active", "Status": "Permitted", "business_": "11000009", "name": "Aldi Inc #19", "address": "6601 GRAVOIS", "city": "St Louis", "state": "MO", "postal_co": "63116", "PhoneDayN": "752-1012", "PhoneDayE": null, "addrtype": "Permitted", "addrlocat": "street_address" }, "geometry": { "type": "Point", "coordinates": [ -90.2826131, 38.5729335 ] } },
{ "type": "Feature", "properties": { "Module": "FoodFacility", "Stage": "Active", "Status": "Permitted", "business_": "11000010", "name": "Aldi Inc #48", "address": "3616 Natural Bridge", "city": "St Louis", "state": "MO", "postal_co": "63106", "PhoneDayN": "678-3095", "PhoneDayE": null, "addrtype": "Permitted", "addrlocat": "street_address" }, "geometry": { "type": "Point", "coordinates": [ -90.2180962, 38.6607789 ] } },
{ "type": "Feature", "properties": { "Module": "FoodFacility", "Stage": "Active", "Status": "Permitted", "business_": "11000012", "name": "Aldi Inc #57", "address": "3721 S Grand", "city": "St Louis", "state": "MO", "postal_co": "63118", "PhoneDayN": "664-5303", "PhoneDayE": null, "addrtype": "Permitted", "addrlocat": "street_address" }, "geometry": { "type": "Point", "coordinates": [ -90.2448095, 38.5895216 ] } },
{ "type": "Feature", "properties": { "Module": "FoodFacility", "Stage": "Active", "Status": "Permitted", "business_": "MWIS-95HS93", "name": "ALDI's", "address": "702 N Kingshighway", "city": "SAINT LOUIS", "state": "MO", "postal_co": "63108", "PhoneDayN": null, "PhoneDayE": null, "addrtype": "Permitted", "addrlocat": "street_address" }, "geometry": { "type": "Point", "coordinates": [ -90.262929, 38.652379 ] } },
{ "type": "Feature", "properties": { "Module": "FoodFacility", "Stage": "Active", "Status": "Permitted", "business_": "MWIS-95HS93", "name": "ALDI's", "address": "702 N Kingshighway", "city": "SAINT LOUIS", "state": "MO", "postal_co": "63108", "PhoneDayN": null, "PhoneDayE": null, "addrtype": "Permitted", "addrlocat": "street_address" }, "geometry": { "type": "Point", "coordinates": [ -90.262929, 38.652379 ] } },
{ "type": "Feature", "properties": { "Module": "FoodFacility", "Stage": "Active", "Status": "Permitted", "business_": "19005", "name": "Alexian Bros Lansdowne Village", "address": "4624 Lansdowne", "city": "St Louis", "state": "MO", "postal_co": "63116", "PhoneDayN": "351-6888", "PhoneDayE": null, "addrtype": "Permitted", "addrlocat": "street_address" }, "geometry": { "type": "Point", "coordinates": [ -90.272295, 38.586732 ] } },
{ "type": "Feature", "properties": { "Module": "FoodFacility", "Stage": "Active", "Status": "Permitted", "business_": "35584", "name": "Alexian Brothers Comm Services", "address": "3900 S GRAND", "city": "St Louis", "state": "MO", "postal_co": "63118", "PhoneDayN": "771-5800", "PhoneDayE": null, "addrtype": "Permitted", "addrlocat": "street_address" }, "geometry": { "type": "Point", "coordinates": [ -90.244094, 38.586172 ] } },
{ "type": "Feature", "properties": { "Module": "FoodFacility", "Stage": "Active", "Status": "Permitted", "business_": "1201184", "name": "Alhuda Intl Mkt", "address": "4743 MORGANFORD", "city": "St Louis", "state": "MO", "postal_co": "63116", "PhoneDayN": "546-0202", "PhoneDayE": null, "addrtype": "Permitted", "addrlocat": "street_address" }, "geometry": { "type": "Point", "coordinates": [ -90.2670362, 38.5820394 ] } },
{ "type": "Feature", "properties": { "Module": "FoodFacility", "Stage": "Active", "Status": "Permitted", "business_": "36071", "name": "All Ways Kare Residential", "address": "5076 Waterman", "city": "St Louis", "state": "MO", "postal_co": "63112", "PhoneDayN": "367-9516", "PhoneDayE": null, "addrtype": "Permitted", "addrlocat": "street_address" }, "geometry": { "type": "Point", "coordinates": [ -90.266941, 38.648117 ] } },
{ "type": "Feature", "properties": { "Module": "FoodFacility", "Stage": "Active", "Status": "Permitted", "business_": "38191", "name": "Almost Home Inc", "address": "3200 St Vincent Ave", "city": "St Louis", "state": "MO", "postal_co": "63104", "PhoneDayN": "771-4663", "PhoneDayE": null, "addrtype": "Permitted", "addrlocat": "street_address" }, "geometry": { "type": "Point", "coordinates": [ -90.232051, 38.618664 ] } },
{ "type": "Feature", "properties": { "Module": "FoodFacility", "Stage": "Active", "Status": "Permitted", "business_": "MWHN-9CZS5M", "name": "Al-Mustafa Supermarket", "address": "4656 Gravois", "city": "St Louis", "state": "MO", "postal_co": "63116", "PhoneDayN": "481-110", "PhoneDayE": null, "addrtype": "Permitted", "addrlocat": "street_address" }, "geometry": { "type": "Point", "coordinates": [ -90.2652775, 38.582783 ] } },
{ "type": "Feature", "properties": { "Module": "FoodFacility", "Stage": "Active", "Status": "Permitted", "business_": "MWHN-9EGN8K", "name": "AL-NOOR RESTAURANT", "address": "3819 Meramec", "city": "St Louis", "state": "MO", "postal_co": "63116", "PhoneDayN": null, "PhoneDayE": null, "addrtype": "Permitted", "addrlocat": "street_address" }, "geometry": { "type": "Point", "coordinates": [ -90.248495, 38.583357 ] } },
{ "type": "Feature", "properties": { "Module": "FoodFacility", "Stage": "Active", "Status": "Permitted", "business_": "MWHN-96ELVE", "name": "Alpha Brewing", "address": "1409 Washington Ave", "city": "SAINT LOUIS", "state": "MO", "postal_co": "63103", "PhoneDayN": "621-2337", "PhoneDayE": null, "addrtype": "Permitted", "addrlocat": "street_address" }, "geometry": { "type": "Point", "coordinates": [ -90.1998977, 38.6327356 ] } },
{ "type": "Feature", "properties": { "Module": "FoodFacility", "Stage": "Active", "Status": "Permitted", "business_": "1200811", "name": "Alps Market", "address": "2700 S GRAND", "city": "St Louis", "state": "MO", "postal_co": "63118", "PhoneDayN": "773-0085", "PhoneDayE": null, "addrtype": "Permitted", "addrlocat": "street_address" }, "geometry": { "type": "Point", "coordinates": [ -90.240526, 38.6072556 ] } },
{ "type": "Feature", "properties": { "Module": "FoodFacility", "Stage": "Active", "Status": "Permitted", "business_": "9026", "name": "Al's Cafe", "address": "2500 DEKALB 02", "city": "St Louis", "state": "MO", "postal_co": "63104", "PhoneDayN": "776-4171", "PhoneDayE": null, "addrtype": "Permitted", "addrlocat": "street_address" }, "geometry": { "type": "Point", "coordinates": [ -90.20101, 38.59835 ] } },
{ "type": "Feature", "properties": { "Module": "FoodFacility", "Stage": "Active", "Status": "Permitted", "business_": "2000", "name": "Al's Restaurant", "address": "1200 N 1ST", "city": "St Louis", "state": "MO", "postal_co": "63102", "PhoneDayN": "421-6399", "PhoneDayE": null, "addrtype": "Permitted", "addrlocat": "street_address" }, "geometry": { "type": "Point", "coordinates": [ -90.1824039, 38.6354586 ] } },
{ "type": "Feature", "properties": { "Module": "FoodFacility", "Stage": "Active", "Status": "Permitted", "business_": "MWIS-95HRDQ", "name": "Alumni Saint Louis", "address": "200 N 13th St", "city": "SAINT LOUIS", "state": "MO", "postal_co": "63102", "PhoneDayN": "241-5888", "PhoneDayE": null, "addrtype": "Permitted", "addrlocat": "street_address" }, "geometry": { "type": "Point", "coordinates": [ -90.1989829, 38.6296099 ] } },
{ "type": "Feature", "properties": { "Module": "FoodFacility", "Stage": "Active", "Status": "Pending", "business_": "#N\/A", "name": "AM & BM LLC Phillips 66", "address": "4300 S Kingshighway", "city": "St Louis", "state": "MO", "postal_co": "63109", "PhoneDayN": null, "PhoneDayE": null, "addrtype": "#N\/A", "addrlocat": "street_address" }, "geometry": { "type": "Point", "coordinates": [ -90.2740753, 38.5898029 ] } },
{ "type": "Feature", "properties": { "Module": "FoodFacility", "Stage": "Active", "Status": "Permitted", "business_": "1400098", "name": "Ameren UE", "address": "1901 Chouteau", "city": "St Louis", "state": "MO", "postal_co": "63103", "PhoneDayN": "554-2360", "PhoneDayE": null, "addrtype": "Permitted", "addrlocat": "street_address" }, "geometry": { "type": "Point", "coordinates": [ -90.209244, 38.6225536 ] } },
{ "type": "Feature", "properties": { "Module": "FoodFacility", "Stage": "Active", "Status": "Permitted", "business_": "6614", "name": "American Czech Educational Center", "address": "4690 Lansdowne", "city": "St Louis", "state": "MO", "postal_co": "63116", "PhoneDayN": "752-8168", "PhoneDayE": null, "addrtype": "Permitted", "addrlocat": "street_address" }, "geometry": { "type": "Point", "coordinates": [ -90.275353, 38.586984 ] } },
{ "type": "Feature", "properties": { "Module": "FoodFacility", "Stage": "Active", "Status": "Permitted", "business_": "7665", "name": "American Legion Post 422", "address": "2601 S 11Th St", "city": "St Louis", "state": "MO", "postal_co": "63118", "PhoneDayN": "776-8504", "PhoneDayE": null, "addrtype": "Permitted", "addrlocat": "street_address" }, "geometry": { "type": "Point", "coordinates": [ -90.2113606, 38.6017773 ] } },
{ "type": "Feature", "properties": { "Module": "FoodFacility", "Stage": "Active", "Status": "Permitted", "business_": "MWHN-8VAPL9", "name": "America's Center Main Kitchen", "address": "701 Convention Plz", "city": "St Louis", "state": "MO", "postal_co": "63101", "PhoneDayN": "342-5191", "PhoneDayE": "5", "addrtype": "Permitted", "addrlocat": "street_address" }, "geometry": { "type": "Point", "coordinates": [ -90.1913983, 38.6311759 ] } },
{ "type": "Feature", "properties": { "Module": "FoodFacility", "Stage": "Active", "Status": "Permitted", "business_": "KHUS-9PFRLG", "name": "America's Tavern", "address": "1449 S Vandeventer", "city": "St Louis", "state": "MO", "postal_co": "63110", "PhoneDayN": null, "PhoneDayE": null, "addrtype": "Permitted", "addrlocat": "street_address" }, "geometry": { "type": "Point", "coordinates": [ -90.2532135, 38.6244615 ] } },
{ "type": "Feature", "properties": { "Module": "FoodFacility", "Stage": "Active", "Status": "Permitted", "business_": "1200980", "name": "Ameriserve @ Conflucence Academies Old North Cam", "address": "3017 N 13TH", "city": "St Louis", "state": "MO", "postal_co": null, "PhoneDayN": null, "PhoneDayE": null, "addrtype": "Permitted", "addrlocat": "street_address" }, "geometry": { "type": "Point", "coordinates": [ -90.1967012, 38.6545761 ] } },
{ "type": "Feature", "properties": { "Module": "FoodFacility", "Stage": "Active", "Status": "Permitted", "business_": "1201007", "name": "Ameriserve @ Conflucence Old North Annex", "address": "3017 N 13TH", "city": "St Louis", "state": "MO", "postal_co": null, "PhoneDayN": "382-3032", "PhoneDayE": null, "addrtype": "Permitted", "addrlocat": "street_address" }, "geometry": { "type": "Point", "coordinates": [ -90.1967012, 38.6545761 ] } },
{ "type": "Feature", "properties": { "Module": "FoodFacility", "Stage": "Active", "Status": "Permitted", "business_": "1200983", "name": "Ameriserve @ Confluence Academy Walnut Park Cam", "address": "5421 THEKLA", "city": "St Louis", "state": "MO", "postal_co": "63120", "PhoneDayN": "499-1500", "PhoneDayE": null, "addrtype": "Permitted", "addrlocat": "street_address" }, "geometry": { "type": "Point", "coordinates": [ -90.245728, 38.6957035 ] } },
{ "type": "Feature", "properties": { "Module": "FoodFacility", "Stage": "Active", "Status": "Permitted", "business_": "1200982", "name": "Ameriserve @ Confluence South City Campus", "address": "4235 S COMPTON", "city": "St Louis", "state": "MO", "postal_co": "63111", "PhoneDayN": "832-3010", "PhoneDayE": null, "addrtype": "Permitted", "addrlocat": "street_address" }, "geometry": { "type": "Point", "coordinates": [ -90.240387, 38.579281 ] } },
{ "type": "Feature", "properties": { "Module": "FoodFacility", "Stage": "Active", "Status": "Permitted", "business_": "1201006", "name": "Ameriserve @Conflucence Academy Annex", "address": "5421 THEKLA", "city": "St Louis", "state": "MO", "postal_co": "63120", "PhoneDayN": "382-3032", "PhoneDayE": null, "addrtype": "Permitted", "addrlocat": "street_address" }, "geometry": { "type": "Point", "coordinates": [ -90.245728, 38.6957035 ] } },
{ "type": "Feature", "properties": { "Module": "FoodFacility", "Stage": "Active", "Status": "Permitted", "business_": "1200981", "name": "Ameriserve @Conflucence Academy Prep Academy", "address": "310 N 15th St", "city": "St Louis", "state": "MO", "postal_co": "63103", "PhoneDayN": "429-0761", "PhoneDayE": null, "addrtype": "Permitted", "addrlocat": "street_address" }, "geometry": { "type": "Point", "coordinates": [ -90.2016268, 38.6306579 ] } },
{ "type": "Feature", "properties": { "Module": "FoodFacility", "Stage": "Active", "Status": "Permitted", "business_": "1200978", "name": "Ameriserve @Confluence Academy", "address": "3112 MERAMEC", "city": "St Louis", "state": "MO", "postal_co": "63118", "PhoneDayN": "481-4700", "PhoneDayE": null, "addrtype": "Permitted", "addrlocat": "street_address" }, "geometry": { "type": "Point", "coordinates": [ -90.2381598, 38.5797183 ] } },
{ "type": "Feature", "properties": { "Module": "FoodFacility", "Stage": "Active", "Status": "Permitted", "business_": "CGIA-9NLT8H", "name": "Amighetti Bakery", "address": "5141 WILSON 43", "city": "St Louis", "state": "MO", "postal_co": "63110", "PhoneDayN": "776-2855", "PhoneDayE": null, "addrtype": "Permitted", "addrlocat": "street_address" }, "geometry": { "type": "Point", "coordinates": [ -90.2723423, 38.615681 ] } },
{ "type": "Feature", "properties": { "Module": "FoodFacility", "Stage": "Active", "Status": "Permitted", "business_": "1400335", "name": "Amigo Joes Mexican Restaurant & Cantina", "address": "5901 Southwest", "city": "St Louis", "state": "MO", "postal_co": "63139", "PhoneDayN": "471-3797", "PhoneDayE": null, "addrtype": "Permitted", "addrlocat": "street_address" }, "geometry": { "type": "Point", "coordinates": [ -90.2872357, 38.6081853 ] } },
{ "type": "Feature", "properties": { "Module": "FoodFacility", "Stage": "Active", "Status": "Permitted", "business_": "37578", "name": "Amoco Food Shop", "address": "3520 Natural Bridge", "city": "St Louis", "state": "MO", "postal_co": "63107", "PhoneDayN": "533-6800", "PhoneDayE": null, "addrtype": "Permitted", "addrlocat": "street_address" }, "geometry": { "type": "Point", "coordinates": [ -90.2163453, 38.6605675 ] } },
{ "type": "Feature", "properties": { "Module": "FoodFacility", "Stage": "Active", "Status": "Permitted", "business_": "1200198", "name": "Amsterdam Tavern", "address": "3175 MORGANFORD", "city": "St Louis", "state": "MO", "postal_co": "63116", "PhoneDayN": "772-8224", "PhoneDayE": null, "addrtype": "Permitted", "addrlocat": "street_address" }, "geometry": { "type": "Point", "coordinates": [ -90.2617811, 38.6019243 ] } },
{ "type": "Feature", "properties": { "Module": "FoodFacility", "Stage": "Active", "Status": "Permitted", "business_": "8504", "name": "Amvets Post #67", "address": "5022 San Francisco", "city": "St Louis", "state": "MO", "postal_co": "63115", "PhoneDayN": "383-7901", "PhoneDayE": null, "addrtype": "Permitted", "addrlocat": "street_address" }, "geometry": { "type": "Point", "coordinates": [ -90.252337, 38.677601 ] } },
{ "type": "Feature", "properties": { "Module": "FoodFacility", "Stage": "Active", "Status": "Permitted", "business_": "17512", "name": "Amvets Post #88", "address": "8449 N BROADWAY", "city": "St Louis", "state": "MO", "postal_co": "63147", "PhoneDayN": "867-6475", "PhoneDayE": null, "addrtype": "Permitted", "addrlocat": "street_address" }, "geometry": { "type": "Point", "coordinates": [ -90.230001, 38.716365 ] } },
{ "type": "Feature", "properties": { "Module": "FoodFacility", "Stage": "Active", "Status": "Permitted", "business_": "MLEN-99EP8Q", "name": "Amy's Corner Bakeshop", "address": "4476 Chouteau", "city": "St Louis", "state": "MO", "postal_co": "63110", "PhoneDayN": "640-4571", "PhoneDayE": null, "addrtype": "Permitted", "addrlocat": "street_address" }, "geometry": { "type": "Point", "coordinates": [ -90.2606532, 38.6303312 ] } },
{ "type": "Feature", "properties": { "Module": "FoodFacility", "Stage": "Active", "Status": "Permitted", "business_": "MWHN-95XL6Q", "name": "Andres Ribs", "address": "4701B S Kingshighway", "city": "St Louis", "state": "MO", "postal_co": "63109", "PhoneDayN": "368-1894", "PhoneDayE": null, "addrtype": "Permitted", "addrlocat": "street_address" }, "geometry": { "type": "Point", "coordinates": [ -90.2768244, 38.5857464 ] } },
{ "type": "Feature", "properties": { "Module": "FoodFacility", "Stage": "Active", "Status": "Permitted", "business_": "1200108", "name": "Angel Baked Cookies @ Sts Teresa & Bridget Church", "address": "2401 N Grand", "city": "St Louis", "state": "MO", "postal_co": "63113", "PhoneDayN": "371-1190", "PhoneDayE": null, "addrtype": "Permitted", "addrlocat": "street_address" }, "geometry": { "type": "Point", "coordinates": [ -90.2238305, 38.6512814 ] } },
{ "type": "Feature", "properties": { "Module": "FoodFacility", "Stage": "Active", "Status": "Permitted", "business_": "10700015", "name": "Angelos Taverna", "address": "316 MARKET", "city": "St Louis", "state": "MO", "postal_co": "63102", "PhoneDayN": "588-9000", "PhoneDayE": null, "addrtype": "Permitted", "addrlocat": "street_address" }, "geometry": { "type": "Point", "coordinates": [ -90.1885671, 38.6246767 ] } },
{ "type": "Feature", "properties": { "Module": "FoodFacility", "Stage": "Active", "Status": "Permitted", "business_": "1400686", "name": "Angry Beaver", "address": "730 S Broadway", "city": "St Louis", "state": "MO", "postal_co": "63102", "PhoneDayN": "241-3444", "PhoneDayE": null, "addrtype": "Permitted", "addrlocat": "street_address" }, "geometry": { "type": "Point", "coordinates": [ -90.1923048, 38.6189338 ] } },
{ "type": "Feature", "properties": { "Module": "FoodFacility", "Stage": "Active", "Status": "Permitted", "business_": "14023", "name": "Anheuser Busch Executive Dinin", "address": "1 BUSCH Place", "city": "St Louis", "state": "MO", "postal_co": "63118", "PhoneDayN": "577-3785", "PhoneDayE": null, "addrtype": "Permitted", "addrlocat": "street_address" }, "geometry": { "type": "Point", "coordinates": [ -90.2093428, 38.5985037 ] } },
{ "type": "Feature", "properties": { "Module": "FoodFacility", "Stage": "Active", "Status": "Permitted", "business_": "20904", "name": "Anheuser Busch Eye Institute #18830", "address": "1755 S Grand", "city": "St Louis", "state": "MO", "postal_co": "63103", "PhoneDayN": "577-8000", "PhoneDayE": null, "addrtype": "Permitted", "addrlocat": "street_address" }, "geometry": { "type": "Point", "coordinates": [ -90.24009, 38.615529 ] } },
{ "type": "Feature", "properties": { "Module": "FoodFacility", "Stage": "Active", "Status": "Permitted", "business_": "MWHN-94WRKC", "name": "Annie Moons", "address": "4001 Utah St", "city": "SAINT LOUIS", "state": "MO", "postal_co": "63116", "PhoneDayN": "296-3300", "PhoneDayE": null, "addrtype": "Permitted", "addrlocat": "street_address" }, "geometry": { "type": "Point", "coordinates": [ -90.2534086, 38.5984012 ] } },
{ "type": "Feature", "properties": { "Module": "FoodFacility", "Stage": "Active", "Status": "Permitted", "business_": "37602", "name": "Anthonino's Taverna", "address": "2225 MACKLIND", "city": "St Louis", "state": "MO", "postal_co": "63110", "PhoneDayN": "773-4455", "PhoneDayE": null, "addrtype": "Permitted", "addrlocat": "street_address" }, "geometry": { "type": "Point", "coordinates": [ -90.2778052, 38.6143735 ] } },
{ "type": "Feature", "properties": { "Module": "FoodFacility", "Stage": "Active", "Status": "Permitted", "business_": "CGIA-9RQNXG", "name": "Antonios Bistro Market", "address": "5005 - 07 S Kingshighway", "city": "SAINT LOUIS", "state": "MO", "postal_co": "63109", "PhoneDayN": null, "PhoneDayE": null, "addrtype": "Permitted", "addrlocat": "street_address" }, "geometry": { "type": "Point", "coordinates": [ -90.2656428, 38.6405984 ] } },
{ "type": "Feature", "properties": { "Module": "FoodFacility", "Stage": "Active", "Status": "Permitted", "business_": "1201062", "name": "Applebee's #8118", "address": "4680 CHIPPEWA", "city": "St Louis", "state": "MO", "postal_co": "63116", "PhoneDayN": "352-3700", "PhoneDayE": null, "addrtype": "Permitted", "addrlocat": "street_address" }, "geometry": { "type": "Point", "coordinates": [ -90.272893, 38.5911759 ] } },
{ "type": "Feature", "properties": { "Module": "FoodFacility", "Stage": "Active", "Status": "Permitted", "business_": "1201061", "name": "Applebee's #8127", "address": "4550 Forest Park", "city": "St Louis", "state": "MO", "postal_co": "63109", "PhoneDayN": "454-6636", "PhoneDayE": null, "addrtype": "Permitted", "addrlocat": "street_address" }, "geometry": { "type": "Point", "coordinates": [ -90.261809, 38.638545 ] } },
{ "type": "Feature", "properties": { "Module": "FoodFacility", "Stage": "Active", "Status": "Permitted", "business_": "37761", "name": "Appolonia Restaurant", "address": "6836 GRAVOIS", "city": "St Louis", "state": "MO", "postal_co": "63116", "PhoneDayN": "353-1488", "PhoneDayE": null, "addrtype": "Permitted", "addrlocat": "street_address" }, "geometry": { "type": "Point", "coordinates": [ -90.284493, 38.570257 ] } },
{ "type": "Feature", "properties": { "Module": "FoodFacility", "Stage": "Active", "Status": "Permitted", "business_": "37671", "name": "Apted-Hulling @ Dwight Davis Tennis Center", "address": "5620 GRAND FOREST PARK", "city": "St Louis", "state": "MO", "postal_co": "63112", "PhoneDayN": "361-0177", "PhoneDayE": null, "addrtype": "Permitted", "addrlocat": "street_address" }, "geometry": { "type": "Point", "coordinates": [ -90.2855409, 38.6431304 ] } },
{ "type": "Feature", "properties": { "Module": "FoodFacility", "Stage": "Active", "Status": "Permitted", "business_": "1400148", "name": "Aqua", "address": "999 N 2nd St", "city": "St Louis", "state": "MO", "postal_co": "63102", "PhoneDayN": "881-7565", "PhoneDayE": null, "addrtype": "Permitted", "addrlocat": "street_address" }, "geometry": { "type": "Point", "coordinates": [ -90.184043, 38.6330766 ] } },
{ "type": "Feature", "properties": { "Module": "FoodFacility", "Stage": "Active", "Status": "Permitted", "business_": "21113", "name": "Aramark @ Anheuser Busch Headquarters", "address": "1 BUSCH Place", "city": "St Louis", "state": "MO", "postal_co": "63118", "PhoneDayN": "577-4038", "PhoneDayE": null, "addrtype": "Permitted", "addrlocat": "street_address" }, "geometry": { "type": "Point", "coordinates": [ -90.2093428, 38.5985037 ] } },
{ "type": "Feature", "properties": { "Module": "FoodFacility", "Stage": "Active", "Status": "Permitted", "business_": "1200587", "name": "Aramark @ Anheuser Busch Tech Ctr", "address": "423 Lynch", "city": "St Louis", "state": "MO", "postal_co": "63118", "PhoneDayN": "765-7045", "PhoneDayE": null, "addrtype": "Permitted", "addrlocat": "street_address" }, "geometry": { "type": "Point", "coordinates": [ -90.2057433, 38.599771 ] } },
{ "type": "Feature", "properties": { "Module": "FoodFacility", "Stage": "Active", "Status": "Permitted", "business_": "KHUS-9NLKBR", "name": "Aramark @ SLU - Clemens-Starbucks", "address": "3640 W Pine", "city": "SAINT LOUIS", "state": "MO", "postal_co": "63103", "PhoneDayN": null, "PhoneDayE": null, "addrtype": "Permitted", "addrlocat": "street_address" }, "geometry": { "type": "Point", "coordinates": [ -90.2414043, 38.6375022 ] } },
{ "type": "Feature", "properties": { "Module": "FoodFacility", "Stage": "Active", "Status": "Permitted", "business_": "1400181", "name": "Aramark @ Solae -", "address": "4300 Duncan", "city": "St Louis", "state": "MO", "postal_co": "63110", "PhoneDayN": "659-3457", "PhoneDayE": null, "addrtype": "Permitted", "addrlocat": "street_address" }, "geometry": { "type": "Point", "coordinates": [ -90.253455, 38.634863 ] } },
{ "type": "Feature", "properties": { "Module": "FoodFacility", "Stage": "Active", "Status": "Permitted", "business_": "PMAY-9LSRZ6", "name": "Aramark @ St Louis University - Billiken's Club", "address": "20 N Grand", "city": "St Louis", "state": "MO", "postal_co": "63103", "PhoneDayN": "977-9430", "PhoneDayE": null, "addrtype": "Permitted", "addrlocat": "street_address" }, "geometry": { "type": "Point", "coordinates": [ -90.233121, 38.633716 ] } },
{ "type": "Feature", "properties": { "Module": "FoodFacility", "Stage": "Active", "Status": "Permitted", "business_": "PMAY-9LSS4X", "name": "Aramark @ St Louis University - Marketplace", "address": "20 N Grand", "city": "St Louis", "state": "MO", "postal_co": "63103", "PhoneDayN": "977-9430", "PhoneDayE": null, "addrtype": "Permitted", "addrlocat": "street_address" }, "geometry": { "type": "Point", "coordinates": [ -90.233121, 38.633716 ] } },
{ "type": "Feature", "properties": { "Module": "FoodFacility", "Stage": "Active", "Status": "Pending", "business_": "#N\/A", "name": "Aramark at Busch Student Center", "address": "20 N Grand Blvd", "city": "St Louis", "state": "MO", "postal_co": "63103", "PhoneDayN": "977-9430", "PhoneDayE": null, "addrtype": "#N\/A", "addrlocat": "street_address" }, "geometry": { "type": "Point", "coordinates": [ -90.233121, 38.633716 ] } },
{ "type": "Feature", "properties": { "Module": "FoodFacility", "Stage": "Active", "Status": "Permitted", "business_": "KHUS-9KDS2S", "name": "Aramark at St Louis University - Griesedieck Hall", "address": "3630 West Pine", "city": "SAINT LOUIS", "state": "MO", "postal_co": "63108", "PhoneDayN": "977-9430", "PhoneDayE": null, "addrtype": "Permitted", "addrlocat": "street_address" }, "geometry": { "type": "Point", "coordinates": [ -90.2414043, 38.6375022 ] } },
{ "type": "Feature", "properties": { "Module": "FoodFacility", "Stage": "Active", "Status": "Permitted", "business_": "KHUS-9KDS6T", "name": "Aramark at St Louis University - The Docket", "address": "100 N Tucker Blvd", "city": "SAINT LOUIS", "state": "MO", "postal_co": "63101", "PhoneDayN": null, "PhoneDayE": null, "addrtype": "Permitted", "addrlocat": "street_address" }, "geometry": { "type": "Point", "coordinates": [ -90.197504, 38.6284534 ] } },
{ "type": "Feature", "properties": { "Module": "FoodFacility", "Stage": "Active", "Status": "Permitted", "business_": "KHUS-9KDRSQ", "name": "Aramark at St Louis University P.O.D", "address": "20 N Grand Blvd", "city": "St Louis", "state": "MO", "postal_co": "63103", "PhoneDayN": "977-9430", "PhoneDayE": null, "addrtype": "Permitted", "addrlocat": "street_address" }, "geometry": { "type": "Point", "coordinates": [ -90.233121, 38.633716 ] } },
{ "type": "Feature", "properties": { "Module": "FoodFacility", "Stage": "Active", "Status": "Permitted", "business_": "KHUS-9KDRWL", "name": "Aramark at St Louis University-Cook Business School\/Ameren Cafe", "address": "3674 Lindell Blvd", "city": "SAINT LOUIS", "state": "MO", "postal_co": "63108", "PhoneDayN": null, "PhoneDayE": null, "addrtype": "Permitted", "addrlocat": "street_address" }, "geometry": { "type": "Point", "coordinates": [ -90.2354899, 38.6377931 ] } },
{ "type": "Feature", "properties": { "Module": "FoodFacility", "Stage": "Active", "Status": "Permitted", "business_": "KHUS-9KDSBL", "name": "Aramark at St Louis University-Education Center", "address": "1312 Carr Ln", "city": "St Louis", "state": "MO", "postal_co": "63104", "PhoneDayN": null, "PhoneDayE": null, "addrtype": "Permitted", "addrlocat": "street_address" }, "geometry": { "type": "Point", "coordinates": [ -90.235878, 38.6229749 ] } },
{ "type": "Feature", "properties": { "Module": "FoodFacility", "Stage": "Active", "Status": "Permitted", "business_": "MBIR-9L2QYF", "name": "Aramark@St. Louis University Salus Center", "address": "3545 Lafayette", "city": "St Louis", "state": "MO", "postal_co": "63104", "PhoneDayN": "977-9430", "PhoneDayE": null, "addrtype": "Permitted", "addrlocat": "premise" }, "geometry": { "type": "Point", "coordinates": [ -90.2383222, 38.6175684 ] } },
{ "type": "Feature", "properties": { "Module": "FoodFacility", "Stage": "Active", "Status": "Permitted", "business_": "37942", "name": "Arber Cafe", "address": "6955 Gravois", "city": "St Louis", "state": "MO", "postal_co": "63116", "PhoneDayN": "481-7933", "PhoneDayE": null, "addrtype": "Permitted", "addrlocat": "street_address" }, "geometry": { "type": "Point", "coordinates": [ -90.2865854, 38.5690103 ] } },
{ "type": "Feature", "properties": { "Module": "FoodFacility", "Stage": "Active", "Status": "Permitted", "business_": "1400184", "name": "Arby's #504", "address": "4021 LINDELL", "city": "St Louis", "state": "MO", "postal_co": "63108", "PhoneDayN": "652-0726", "PhoneDayE": null, "addrtype": "Permitted", "addrlocat": "street_address" }, "geometry": { "type": "Point", "coordinates": [ -90.2437758, 38.639938 ] } },
{ "type": "Feature", "properties": { "Module": "FoodFacility", "Stage": "Active", "Status": "Permitted", "business_": "21018", "name": "Arby's Roast Beef Restaurant #", "address": "6666 CHIPPEWA", "city": "St Louis", "state": "MO", "postal_co": "63109", "PhoneDayN": "353-2800", "PhoneDayE": null, "addrtype": "Permitted", "addrlocat": "street_address" }, "geometry": { "type": "Point", "coordinates": [ -90.306315, 38.590006 ] } },
{ "type": "Feature", "properties": { "Module": "FoodFacility", "Stage": "Active", "Status": "Permitted", "business_": "8700007", "name": "Arch You Hungry", "address": "4170 Hartford", "city": "St Louis", "state": "MO", "postal_co": "63116", "PhoneDayN": "749-8608", "PhoneDayE": null, "addrtype": "Permitted", "addrlocat": "street_address" }, "geometry": { "type": "Point", "coordinates": [ -90.257865, 38.602989 ] } },
{ "type": "Feature", "properties": { "Module": "FoodFacility", "Stage": "Active", "Status": "Permitted", "business_": "18963", "name": "Area IV Station", "address": "5918 HAMPTON", "city": "St Louis", "state": "MO", "postal_co": "63109", "PhoneDayN": "481-4122", "PhoneDayE": null, "addrtype": "Permitted", "addrlocat": "street_address" }, "geometry": { "type": "Point", "coordinates": [ -90.2941039, 38.5776293 ] } },
{ "type": "Feature", "properties": { "Module": "FoodFacility", "Stage": "Active", "Status": "Permitted", "business_": "KHUS-9LFSZK", "name": "Arena Bar & Grill", "address": "5760 West Park Ave", "city": "SAINT LOUIS", "state": "MO", "postal_co": "63110", "PhoneDayN": null, "PhoneDayE": null, "addrtype": "Permitted", "addrlocat": "street_address" }, "geometry": { "type": "Point", "coordinates": [ -90.2837707, 38.6258151 ] } },
{ "type": "Feature", "properties": { "Module": "FoodFacility", "Stage": "Active", "Status": "Permitted", "business_": "1200513", "name": "Ari's Greek American Cuisine", "address": "3101 Hampton Ave", "city": "St Louis", "state": "MO", "postal_co": "63139", "PhoneDayN": "644-4264", "PhoneDayE": null, "addrtype": "Permitted", "addrlocat": "street_address" }, "geometry": { "type": "Point", "coordinates": [ -90.2893518, 38.6068446 ] } },
{ "type": "Feature", "properties": { "Module": "FoodFacility", "Stage": "Active", "Status": "Permitted", "business_": "20361", "name": "Arkansas Fried Chicken", "address": "4656 DR M L KING", "city": "St Louis", "state": "MO", "postal_co": "63113", "PhoneDayN": "531-1906", "PhoneDayE": null, "addrtype": "Permitted", "addrlocat": "street_address" }, "geometry": { "type": "Point", "coordinates": [ -90.2530669, 38.6597178 ] } },
{ "type": "Feature", "properties": { "Module": "FoodFacility", "Stage": "Active", "Status": "Permitted", "business_": "38362", "name": "Arnold S Quick Shop", "address": "4470 CHOUTEAU", "city": "St Louis", "state": "MO", "postal_co": "63117", "PhoneDayN": "531-5357", "PhoneDayE": null, "addrtype": "Permitted", "addrlocat": "street_address" }, "geometry": { "type": "Point", "coordinates": [ -90.260503, 38.6301879 ] } },
{ "type": "Feature", "properties": { "Module": "FoodFacility", "Stage": "Active", "Status": "Permitted", "business_": "KHUS-9LWM37", "name": "Arsenal Market", "address": "3301 Arsenal", "city": "SAINT LOUIS", "state": "MO", "postal_co": "63116", "PhoneDayN": null, "PhoneDayE": null, "addrtype": "Permitted", "addrlocat": "street_address" }, "geometry": { "type": "Point", "coordinates": [ -90.236696, 38.602298 ] } },
{ "type": "Feature", "properties": { "Module": "FoodFacility", "Stage": "Active", "Status": "Permitted", "business_": "KHUS-9LWM37", "name": "Arsenal Market", "address": "3301 Arsenal", "city": "SAINT LOUIS", "state": "MO", "postal_co": "63116", "PhoneDayN": null, "PhoneDayE": null, "addrtype": "Permitted", "addrlocat": "street_address" }, "geometry": { "type": "Point", "coordinates": [ -90.236696, 38.602298 ] } },
{ "type": "Feature", "properties": { "Module": "FoodFacility", "Stage": "Active", "Status": "Permitted", "business_": "1400687", "name": "Art Bakery & Grocery", "address": "3830 MORGANFORD", "city": "St Louis", "state": "MO", "postal_co": "63116", "PhoneDayN": "578-0053", "PhoneDayE": null, "addrtype": "Permitted", "addrlocat": "street_address" }, "geometry": { "type": "Point", "coordinates": [ -90.264062, 38.589565 ] } },
{ "type": "Feature", "properties": { "Module": "FoodFacility", "Stage": "Active", "Status": "Permitted", "business_": "MWIS-9ARKQ4", "name": "Aryana Market", "address": "5545 S Grand Blvd", "city": "SAINT LOUIS", "state": "MO", "postal_co": "63111", "PhoneDayN": null, "PhoneDayE": null, "addrtype": "Permitted", "addrlocat": "street_address" }, "geometry": { "type": "Point", "coordinates": [ -90.2541363, 38.5688906 ] } },
{ "type": "Feature", "properties": { "Module": "FoodFacility", "Stage": "Active", "Status": "Permitted", "business_": "KHUS-9MPS45", "name": "Asia Gourmet", "address": "412 N Tucker Blvd", "city": "SAINT LOUIS", "state": "MO", "postal_co": "63103", "PhoneDayN": null, "PhoneDayE": null, "addrtype": "Permitted", "addrlocat": "street_address" }, "geometry": { "type": "Point", "coordinates": [ -90.196642, 38.630818 ] } },
{ "type": "Feature", "properties": { "Module": "FoodFacility", "Stage": "Active", "Status": "Permitted", "business_": "11000007", "name": "Asian World Market", "address": "3106 CHEROKEE", "city": "St Louis", "state": "MO", "postal_co": "63118", "PhoneDayN": "776-7706", "PhoneDayE": null, "addrtype": "Permitted", "addrlocat": "street_address" }, "geometry": { "type": "Point", "coordinates": [ -90.2350041, 38.594322 ] } },
{ "type": "Feature", "properties": { "Module": "FoodFacility", "Stage": "Active", "Status": "Permitted", "business_": "1200231", "name": "At Your Convenience @ Robert A Young Bldg", "address": "1222 SPRUCE ROOM 9.103", "city": "St Louis", "state": "MO", "postal_co": "63103", "PhoneDayN": "436-1046", "PhoneDayE": null, "addrtype": "Permitted", "addrlocat": "subpremise" }, "geometry": { "type": "Point", "coordinates": [ -90.1999297, 38.6242212 ] } },
{ "type": "Feature", "properties": { "Module": "FoodFacility", "Stage": "Active", "Status": "Permitted", "business_": "MWIS-9H5NXX", "name": "Athlete Eats", "address": "2837 Cherokee", "city": "St Louis", "state": "MO", "postal_co": "63118", "PhoneDayN": "932-5566", "PhoneDayE": null, "addrtype": "Permitted", "addrlocat": "street_address" }, "geometry": { "type": "Point", "coordinates": [ -90.2314409, 38.5943004 ] } },
{ "type": "Feature", "properties": { "Module": "FoodFacility", "Stage": "Active", "Status": "Permitted", "business_": "1400484", "name": "Atlas Restaurant & Lunch Room", "address": "5513 Pershing", "city": "St Louis", "state": "MO", "postal_co": "63112", "PhoneDayN": "367-6800", "PhoneDayE": null, "addrtype": "Permitted", "addrlocat": "street_address" }, "geometry": { "type": "Point", "coordinates": [ -90.2787224, 38.6482019 ] } },
{ "type": "Feature", "properties": { "Module": "FoodFacility", "Stage": "Active", "Status": "Permitted", "business_": "38068", "name": "Atomic Cowboy", "address": "4140 MANCHESTER", "city": "St Louis", "state": "MO", "postal_co": "63110", "PhoneDayN": "775-0775", "PhoneDayE": null, "addrtype": "Permitted", "addrlocat": "street_address" }, "geometry": { "type": "Point", "coordinates": [ -90.2517841, 38.6275194 ] } },
{ "type": "Feature", "properties": { "Module": "FoodFacility", "Stage": "Active", "Status": "Permitted", "business_": "1400274", "name": "Avalon Garden", "address": "4359 Taft Ave", "city": "St Louis", "state": "MO", "postal_co": "63116", "PhoneDayN": "752-2022", "PhoneDayE": null, "addrtype": "Permitted", "addrlocat": "street_address" }, "geometry": { "type": "Point", "coordinates": [ -90.2674452, 38.5877035 ] } },
{ "type": "Feature", "properties": { "Module": "FoodFacility", "Stage": "Active", "Status": "Permitted", "business_": "MLEN-9GNU7T", "name": "Avenue Mini Mart", "address": "5406 St Louis Ave", "city": "SAINT LOUIS", "state": "MO", "postal_co": "63120", "PhoneDayN": "660-5163", "PhoneDayE": null, "addrtype": "Permitted", "addrlocat": "street_address" }, "geometry": { "type": "Point", "coordinates": [ -90.2652109, 38.675609 ] } },
{ "type": "Feature", "properties": { "Module": "FoodFacility", "Stage": "Active", "Status": "Permitted", "business_": "1200670", "name": "A'viands @ City Justice Center", "address": "200 S Tucker", "city": "St Louis", "state": "MO", "postal_co": "63103", "PhoneDayN": null, "PhoneDayE": null, "addrtype": "Permitted", "addrlocat": "street_address" }, "geometry": { "type": "Point", "coordinates": [ -90.1983761, 38.6260077 ] } },
{ "type": "Feature", "properties": { "Module": "FoodFacility", "Stage": "Active", "Status": "Permitted", "business_": "1200671", "name": "A'viands @ Medium Security Institution", "address": "7600 Hall", "city": "St Louis", "state": "MO", "postal_co": "63147", "PhoneDayN": "621-1013", "PhoneDayE": null, "addrtype": "Permitted", "addrlocat": "street_address" }, "geometry": { "type": "Point", "coordinates": [ -90.222047, 38.705642 ] } },
{ "type": "Feature", "properties": { "Module": "FoodFacility", "Stage": "Active", "Status": "Permitted", "business_": "38081", "name": "Aya Sofia Restaurant", "address": "6671 Chippewa", "city": "St Louis", "state": "MO", "postal_co": "63109", "PhoneDayN": "645-9919", "PhoneDayE": null, "addrtype": "Permitted", "addrlocat": "street_address" }, "geometry": { "type": "Point", "coordinates": [ -90.306822, 38.590379 ] } },
{ "type": "Feature", "properties": { "Module": "FoodFacility", "Stage": "Active", "Status": "Permitted", "business_": "1200896", "name": "A-Z Laclede Market Llc", "address": "4569 LACLEDE", "city": "St Louis", "state": "MO", "postal_co": "63108", "PhoneDayN": "367-4014", "PhoneDayE": null, "addrtype": "Permitted", "addrlocat": "street_address" }, "geometry": { "type": "Point", "coordinates": [ -90.2613537, 38.640194 ] } },
{ "type": "Feature", "properties": { "Module": "FoodFacility", "Stage": "Active", "Status": "Permitted", "business_": "1200759", "name": "B & B Supermarket", "address": "954 GOODFELLOW", "city": "St Louis", "state": "MO", "postal_co": "63112", "PhoneDayN": "454-1466", "PhoneDayE": null, "addrtype": "Permitted", "addrlocat": "street_address" }, "geometry": { "type": "Point", "coordinates": [ -90.2855675, 38.6605458 ] } },
{ "type": "Feature", "properties": { "Module": "FoodFacility", "Stage": "Active", "Status": "Permitted", "business_": "MWHN-96CNLG", "name": "B J's Gul-licious Backyard BBQ", "address": "6900 Noonan", "city": "St Louis", "state": "MO", "postal_co": "63143", "PhoneDayN": null, "PhoneDayE": null, "addrtype": "Permitted", "addrlocat": "street_address" }, "geometry": { "type": "Point", "coordinates": [ -90.3078228, 38.6158732 ] } },
{ "type": "Feature", "properties": { "Module": "FoodFacility", "Stage": "Active", "Status": "Permitted", "business_": "MLEN-9F5P9J", "name": "B2B Catering of St Louis", "address": "1435 North Market", "city": "SAINT LOUIS", "state": "MO", "postal_co": "63106", "PhoneDayN": "593-3771", "PhoneDayE": null, "addrtype": "Permitted", "addrlocat": "street_address" }, "geometry": { "type": "Point", "coordinates": [ -90.1973963, 38.6478168 ] } },
{ "type": "Feature", "properties": { "Module": "FoodFacility", "Stage": "Active", "Status": "Permitted", "business_": "37455", "name": "Babe's Tavern & Garden", "address": "3215 IVANHOE", "city": "St Louis", "state": "MO", "postal_co": "63139", "PhoneDayN": "647-3436", "PhoneDayE": null, "addrtype": "Permitted", "addrlocat": "street_address" }, "geometry": { "type": "Point", "coordinates": [ -90.3039447, 38.605376 ] } },
{ "type": "Feature", "properties": { "Module": "FoodFacility", "Stage": "Active", "Status": "Permitted", "business_": "1400569", "name": "Baby Steps Academy II", "address": "6831 MANCHESTER", "city": "St Louis", "state": "MO", "postal_co": "63143", "PhoneDayN": "646-1001", "PhoneDayE": null, "addrtype": "Permitted", "addrlocat": "street_address" }, "geometry": { "type": "Point", "coordinates": [ -90.305802, 38.617811 ] } },
{ "type": "Feature", "properties": { "Module": "FoodFacility", "Stage": "Active", "Status": "Permitted", "business_": "1200802", "name": "Babylon Grocery & Bakery", "address": "3803 MERAMEC", "city": "St Louis", "state": "MO", "postal_co": "63116", "PhoneDayN": "832-3447", "PhoneDayE": null, "addrtype": "Permitted", "addrlocat": "street_address" }, "geometry": { "type": "Point", "coordinates": [ -90.2482205, 38.5829147 ] } },
{ "type": "Feature", "properties": { "Module": "FoodFacility", "Stage": "Active", "Status": "Permitted", "business_": "11000042", "name": "Babylon Grocery & Bakery Bbq", "address": "3803 Meramec", "city": "St Louis", "state": "MO", "postal_co": "63116", "PhoneDayN": "832-3447", "PhoneDayE": null, "addrtype": "Permitted", "addrlocat": "street_address" }, "geometry": { "type": "Point", "coordinates": [ -90.2482205, 38.5829147 ] } },
{ "type": "Feature", "properties": { "Module": "FoodFacility", "Stage": "Active", "Status": "Permitted", "business_": "MWIS-9DGRPY", "name": "Backyard BBQ", "address": "5705 Page Blvd", "city": "St Louis", "state": "MO", "postal_co": "63112", "PhoneDayN": "327-7868", "PhoneDayE": null, "addrtype": "Permitted", "addrlocat": "street_address" }, "geometry": { "type": "Point", "coordinates": [ -90.281503, 38.666267 ] } },
{ "type": "Feature", "properties": { "Module": "FoodFacility", "Stage": "Active", "Status": "Permitted", "business_": "1200414", "name": "Bad Dog", "address": "3960 Chouteau", "city": "St Louis", "state": "MO", "postal_co": "63110", "PhoneDayN": "652-0011", "PhoneDayE": null, "addrtype": "Permitted", "addrlocat": "premise" }, "geometry": { "type": "Point", "coordinates": [ -90.2471098, 38.6277883 ] } },
{ "type": "Feature", "properties": { "Module": "FoodFacility", "Stage": "Active", "Status": "Permitted", "business_": "20724", "name": "Baden Christian Childcare Ctr", "address": "8375 N BROADWAY", "city": "St Louis", "state": "MO", "postal_co": "63147", "PhoneDayN": "261-1376", "PhoneDayE": null, "addrtype": "Permitted", "addrlocat": "street_address" }, "geometry": { "type": "Point", "coordinates": [ -90.230224, 38.714654 ] } },
{ "type": "Feature", "properties": { "Module": "FoodFacility", "Stage": "Active", "Status": "Permitted", "business_": "1200969", "name": "Baetje Farms", "address": "730 CARROLL SOULARD", "city": "St Louis", "state": "MO", "postal_co": "63104", "PhoneDayN": null, "PhoneDayE": null, "addrtype": "Permitted", "addrlocat": "street_address" }, "geometry": { "type": "Point", "coordinates": [ -90.2010946, 38.6107575 ] } },
{ "type": "Feature", "properties": { "Module": "FoodFacility", "Stage": "Active", "Status": "Permitted", "business_": "MWHN-9B2QXK", "name": "Baida Restaurant", "address": "3191 S GRAND", "city": "St Louis", "state": "MO", "postal_co": "63118", "PhoneDayN": "932-9.49", "PhoneDayE": null, "addrtype": "Permitted", "addrlocat": "street_address" }, "geometry": { "type": "Point", "coordinates": [ -90.2429676, 38.5996113 ] } },
{ "type": "Feature", "properties": { "Module": "FoodFacility", "Stage": "Active", "Status": "Permitted", "business_": "CGIA-9P8LX2", "name": "Baiku Sushi Lounge", "address": "3407 Olive", "city": "St Louis", "state": "MO", "postal_co": "63103", "PhoneDayN": null, "PhoneDayE": null, "addrtype": "Permitted", "addrlocat": "street_address" }, "geometry": { "type": "Point", "coordinates": [ -90.2286145, 38.636694 ] } },
{ "type": "Feature", "properties": { "Module": "FoodFacility", "Stage": "Active", "Status": "Permitted", "business_": "37743", "name": "Bailey's Chocolate Bar", "address": "1915 PARK", "city": "St Louis", "state": "MO", "postal_co": "63104", "PhoneDayN": "241-8100", "PhoneDayE": null, "addrtype": "Permitted", "addrlocat": "street_address" }, "geometry": { "type": "Point", "coordinates": [ -90.2389127, 38.6196337 ] } },
{ "type": "Feature", "properties": { "Module": "FoodFacility", "Stage": "Active", "Status": "Permitted", "business_": "37160", "name": "Balloons Bears & Babies", "address": "6307 Windham Ave", "city": "St Louis", "state": "MO", "postal_co": "63120", "PhoneDayN": "381-8697", "PhoneDayE": null, "addrtype": "Permitted", "addrlocat": "street_address" }, "geometry": { "type": "Point", "coordinates": [ -90.2650883, 38.6996981 ] } },
{ "type": "Feature", "properties": { "Module": "FoodFacility", "Stage": "Active", "Status": "Permitted", "business_": "38133", "name": "Bamboo Bistro", "address": "214 N 4Th", "city": "St Louis", "state": "MO", "postal_co": "63102", "PhoneDayN": "(31-8884", "PhoneDayE": null, "addrtype": "Permitted", "addrlocat": "street_address" }, "geometry": { "type": "Point", "coordinates": [ -90.1896925, 38.6229653 ] } },
{ "type": "Feature", "properties": { "Module": "FoodFacility", "Stage": "Active", "Status": "Permitted", "business_": "19214", "name": "Banh Mi So 1", "address": "4071 S Grand", "city": "St Louis", "state": "MO", "postal_co": "63118", "PhoneDayN": "353-0545", "PhoneDayE": null, "addrtype": "Permitted", "addrlocat": "street_address" }, "geometry": { "type": "Point", "coordinates": [ -90.2448596, 38.5828678 ] } },
{ "type": "Feature", "properties": { "Module": "FoodFacility", "Stage": "Active", "Status": "Permitted", "business_": "KHUS-9NKSTJ", "name": "Bannister House", "address": "3824 Lindell", "city": "St Louis", "state": "MO", "postal_co": "63108", "PhoneDayN": null, "PhoneDayE": null, "addrtype": "Permitted", "addrlocat": "street_address" }, "geometry": { "type": "Point", "coordinates": [ -90.2396629, 38.638232 ] } },
{ "type": "Feature", "properties": { "Module": "FoodFacility", "Stage": "Active", "Status": "Permitted", "business_": "1200083", "name": "Banquet Kitchen Four Seasons Hotel", "address": "999 N 2ND", "city": "St Louis", "state": "MO", "postal_co": "63102", "PhoneDayN": "881-2010", "PhoneDayE": null, "addrtype": "Permitted", "addrlocat": "street_address" }, "geometry": { "type": "Point", "coordinates": [ -90.184043, 38.6330766 ] } },
{ "type": "Feature", "properties": { "Module": "FoodFacility", "Stage": "Active", "Status": "Permitted", "business_": "37213", "name": "Banquet Kitchen@Renaissance St Louis Grand & Suite", "address": "800 Washington Ave", "city": "St Louis", "state": "MO", "postal_co": "63101", "PhoneDayN": "621-9600", "PhoneDayE": null, "addrtype": "Permitted", "addrlocat": "street_address" }, "geometry": { "type": "Point", "coordinates": [ -90.1919974, 38.6303999 ] } },
{ "type": "Feature", "properties": { "Module": "FoodFacility", "Stage": "Active", "Status": "Permitted", "business_": "CGIA-9RHMUW", "name": "Bar : PM", "address": "7109 S Broadway", "city": "SAINT LOUIS", "state": "MO", "postal_co": "63111", "PhoneDayN": null, "PhoneDayE": null, "addrtype": "Permitted", "addrlocat": "street_address" }, "geometry": { "type": "Point", "coordinates": [ -90.25438, 38.551005 ] } },
{ "type": "Feature", "properties": { "Module": "FoodFacility", "Stage": "Active", "Status": "Permitted", "business_": "1200183", "name": "Bar 101 Soulard", "address": "1724 S Broadway", "city": "St Louis", "state": "MO", "postal_co": "63104", "PhoneDayN": "621-5400", "PhoneDayE": null, "addrtype": "Permitted", "addrlocat": "street_address" }, "geometry": { "type": "Point", "coordinates": [ -90.1998708, 38.6082102 ] } },
{ "type": "Feature", "properties": { "Module": "FoodFacility", "Stage": "Active", "Status": "Permitted", "business_": "1400589", "name": "Bar Infinity", "address": "4747 MORGANFORD", "city": "St Louis", "state": "MO", "postal_co": "63116", "PhoneDayN": "276-3284", "PhoneDayE": null, "addrtype": "Permitted", "addrlocat": "street_address" }, "geometry": { "type": "Point", "coordinates": [ -90.2670545, 38.5819858 ] } },
{ "type": "Feature", "properties": { "Module": "FoodFacility", "Stage": "Active", "Status": "Permitted", "business_": "21016", "name": "Bar Italia", "address": "13 Maryland Plz", "city": "St Louis", "state": "MO", "postal_co": "63108", "PhoneDayN": "361-7010", "PhoneDayE": null, "addrtype": "Permitted", "addrlocat": "street_address" }, "geometry": { "type": "Point", "coordinates": [ -90.2620482, 38.6450218 ] } },
{ "type": "Feature", "properties": { "Module": "FoodFacility", "Stage": "Active", "Status": "Permitted", "business_": "1201114", "name": "Bar Louie", "address": "14 Maryland Plz", "city": "St Louis", "state": "MO", "postal_co": "63108", "PhoneDayN": "678-3385", "PhoneDayE": null, "addrtype": "Permitted", "addrlocat": "street_address" }, "geometry": { "type": "Point", "coordinates": [ -90.2621344, 38.6446162 ] } },
{ "type": "Feature", "properties": { "Module": "FoodFacility", "Stage": "Active", "Status": "Permitted", "business_": "MWHN-9BTHZB", "name": "Bar None", "address": "8114 N BROADWAY 16", "city": "St Louis", "state": "MO", "postal_co": "63147", "PhoneDayN": "484-1791", "PhoneDayE": null, "addrtype": "Permitted", "addrlocat": "street_address" }, "geometry": { "type": "Point", "coordinates": [ -90.2302127, 38.7108713 ] } },
{ "type": "Feature", "properties": { "Module": "FoodFacility", "Stage": "Active", "Status": "Permitted", "business_": "35541", "name": "Barnes & Noble Bookstore", "address": "4905 CHILDRENS Place", "city": "St Louis", "state": "MO", "postal_co": "63110", "PhoneDayN": "362-3240", "PhoneDayE": null, "addrtype": "Permitted", "addrlocat": "street_address" }, "geometry": { "type": "Point", "coordinates": [ -90.2648026, 38.6370809 ] } },
{ "type": "Feature", "properties": { "Module": "FoodFacility", "Stage": "Active", "Status": "Permitted", "business_": "16956", "name": "Barnes Hospital Clayton\/News", "address": "4353 CLAYTON", "city": "St Louis", "state": "MO", "postal_co": "63110", "PhoneDayN": null, "PhoneDayE": null, "addrtype": "Permitted", "addrlocat": "street_address" }, "geometry": { "type": "Point", "coordinates": [ -90.2552853, 38.6329341 ] } },
{ "type": "Feature", "properties": { "Module": "FoodFacility", "Stage": "Active", "Status": "Permitted", "business_": "19856", "name": "Barnes Hospital Main Kitchen", "address": "1 BARNES JEWISH PLZ MS 90-17-334", "city": "St Louis", "state": "MO", "postal_co": "63110", "PhoneDayN": "454-7150", "PhoneDayE": null, "addrtype": "Permitted", "addrlocat": "locality" }, "geometry": { "type": "Point", "coordinates": [ -90.1994042, 38.6270025 ] } },
{ "type": "Feature", "properties": { "Module": "FoodFacility", "Stage": "Active", "Status": "Permitted", "business_": "1200456", "name": "Barnes Jewish South Coffee Bar", "address": "1 BARNES JEWISH PLZ", "city": "St Louis", "state": "MO", "postal_co": "63110", "PhoneDayN": "362-5619", "PhoneDayE": null, "addrtype": "Permitted", "addrlocat": "street_address" }, "geometry": { "type": "Point", "coordinates": [ -90.2648753, 38.6352223 ] } },
{ "type": "Feature", "properties": { "Module": "FoodFacility", "Stage": "Active", "Status": "Permitted", "business_": "1200672", "name": "Barnett Market", "address": "2600 Virginia", "city": "St Louis", "state": "MO", "postal_co": "63118", "PhoneDayN": "776-3600", "PhoneDayE": null, "addrtype": "Permitted", "addrlocat": "street_address" }, "geometry": { "type": "Point", "coordinates": [ -90.2351739, 38.6072194 ] } },
{ "type": "Feature", "properties": { "Module": "FoodFacility", "Stage": "Active", "Status": "Permitted", "business_": "37268", "name": "Barney's Sports Pub", "address": "6027 Chippewa St", "city": "St Louis", "state": "MO", "postal_co": "63109", "PhoneDayN": "457-0240", "PhoneDayE": null, "addrtype": "Permitted", "addrlocat": "street_address" }, "geometry": { "type": "Point", "coordinates": [ -90.2956403, 38.5938355 ] } },
{ "type": "Feature", "properties": { "Module": "FoodFacility", "Stage": "Active", "Status": "Permitted", "business_": "1200125", "name": "Bartolino's Osteria", "address": "2103 Sulphur", "city": "St Louis", "state": "MO", "postal_co": "631398", "PhoneDayN": "644-2266", "PhoneDayE": null, "addrtype": "Permitted", "addrlocat": "street_address" }, "geometry": { "type": "Point", "coordinates": [ -90.2886184, 38.6175942 ] } },
{ "type": "Feature", "properties": { "Module": "FoodFacility", "Stage": "Active", "Status": "Permitted", "business_": "37394", "name": "Basic Bakery", "address": "5506 S Kingshighway", "city": "St Louis", "state": "MO", "postal_co": "63109", "PhoneDayN": "402-2757", "PhoneDayE": null, "addrtype": "Permitted", "addrlocat": "street_address" }, "geometry": { "type": "Point", "coordinates": [ -90.279366, 38.579793 ] } },
{ "type": "Feature", "properties": { "Module": "FoodFacility", "Stage": "Active", "Status": "Permitted", "business_": "1200094", "name": "Basil Spice Thai Cuisine", "address": "3183 S GRAND", "city": "St Louis", "state": "MO", "postal_co": "63118", "PhoneDayN": "776-1530", "PhoneDayE": null, "addrtype": "Permitted", "addrlocat": "street_address" }, "geometry": { "type": "Point", "coordinates": [ -90.2429018, 38.5998426 ] } },
{ "type": "Feature", "properties": { "Module": "FoodFacility", "Stage": "Active", "Status": "Permitted", "business_": "1200040", "name": "BBC Asian Cafe, Creperie, & Bar", "address": "243 N Euclid", "city": "St Louis", "state": "MO", "postal_co": "63108", "PhoneDayN": "361-7770", "PhoneDayE": null, "addrtype": "Permitted", "addrlocat": "street_address" }, "geometry": { "type": "Point", "coordinates": [ -90.2616441, 38.6440239 ] } },
{ "type": "Feature", "properties": { "Module": "FoodFacility", "Stage": "Active", "Status": "Permitted", "business_": "19951", "name": "Bb's Jazz Blues & Soups", "address": "700 S BROADWAY", "city": "St Louis", "state": "MO", "postal_co": "63102", "PhoneDayN": "436-5222", "PhoneDayE": null, "addrtype": "Permitted", "addrlocat": "street_address" }, "geometry": { "type": "Point", "coordinates": [ -90.192012, 38.6197159 ] } },
{ "type": "Feature", "properties": { "Module": "FoodFacility", "Stage": "Active", "Status": "Permitted", "business_": "KHUS-9JXMH4", "name": "BC Bakehouse", "address": "730 Carroll", "city": "St Louis", "state": "MO", "postal_co": "63104", "PhoneDayN": "590-0571", "PhoneDayE": null, "addrtype": "Permitted", "addrlocat": "street_address" }, "geometry": { "type": "Point", "coordinates": [ -90.2010946, 38.6107575 ] } },
{ "type": "Feature", "properties": { "Module": "FoodFacility", "Stage": "Active", "Status": "Permitted", "business_": "PMAY-8X9JAN", "name": "Beaumont High School Culinary Lab", "address": "3836 Natural Bridge", "city": "St Louis", "state": "MO", "postal_co": "63107", "PhoneDayN": "533-2410", "PhoneDayE": null, "addrtype": "Permitted", "addrlocat": "street_address" }, "geometry": { "type": "Point", "coordinates": [ -90.2219064, 38.6626559 ] } },
{ "type": "Feature", "properties": { "Module": "FoodFacility", "Stage": "Active", "Status": "Permitted", "business_": "1400314", "name": "Beauvais Manor Healthcare & Rehab Center", "address": "3625 Magnolia", "city": "St Louis", "state": "MO", "postal_co": "63110", "PhoneDayN": "771-2990", "PhoneDayE": null, "addrtype": "Permitted", "addrlocat": "street_address" }, "geometry": { "type": "Point", "coordinates": [ -90.242603, 38.607925 ] } },
{ "type": "Feature", "properties": { "Module": "FoodFacility", "Stage": "Active", "Status": "Permitted", "business_": "35799", "name": "Becky Thatcher", "address": "50 S L K Sullivan", "city": "St Louis", "state": "MO", "postal_co": "63102", "PhoneDayN": "923-3015", "PhoneDayE": null, "addrtype": "Permitted", "addrlocat": "street_address" }, "geometry": { "type": "Point", "coordinates": [ -90.1840956, 38.6239589 ] } },
{ "type": "Feature", "properties": { "Module": "FoodFacility", "Stage": "Active", "Status": "Permitted", "business_": "1200585", "name": "Begin New Venture Center", "address": "800 N TUCKER 4TH FLR", "city": "St Louis", "state": "MO", "postal_co": "63101", "PhoneDayN": "314-1969", "PhoneDayE": null, "addrtype": "Permitted", "addrlocat": "street_address" }, "geometry": { "type": "Point", "coordinates": [ -90.1956788, 38.6333367 ] } },
{ "type": "Feature", "properties": { "Module": "FoodFacility", "Stage": "Active", "Status": "Permitted", "business_": "1200290", "name": "Beginning Futures", "address": "4981 THRUSH", "city": "St Louis", "state": "MO", "postal_co": "63120", "PhoneDayN": "381-8400", "PhoneDayE": null, "addrtype": "Permitted", "addrlocat": "street_address" }, "geometry": { "type": "Point", "coordinates": [ -90.2532592, 38.6959178 ] } },
{ "type": "Feature", "properties": { "Module": "FoodFacility", "Stage": "Active", "Status": "Permitted", "business_": "36217", "name": "Behrmann's Tavern", "address": "3155 MERAMEC", "city": "St Louis", "state": "MO", "postal_co": "63118", "PhoneDayN": "353-9626", "PhoneDayE": null, "addrtype": "Permitted", "addrlocat": "street_address" }, "geometry": { "type": "Point", "coordinates": [ -90.239684, 38.5804563 ] } },
{ "type": "Feature", "properties": { "Module": "FoodFacility", "Stage": "Active", "Status": "Permitted", "business_": "1400672", "name": "Bellacinos Pizza & Grinders", "address": "4260 Hampton", "city": "St Louis", "state": "MO", "postal_co": "63109", "PhoneDayN": "832-9700", "PhoneDayE": null, "addrtype": "Permitted", "addrlocat": "street_address" }, "geometry": { "type": "Point", "coordinates": [ -90.2937689, 38.5915863 ] } },
{ "type": "Feature", "properties": { "Module": "FoodFacility", "Stage": "Active", "Status": "Permitted", "business_": "MLEN-962NRD", "name": "Bellas Frozen Yogurt & Cafe", "address": "1021 Washington Ave", "city": "SAINT LOUIS", "state": "MO", "postal_co": "63101", "PhoneDayN": null, "PhoneDayE": null, "addrtype": "Permitted", "addrlocat": "street_address" }, "geometry": { "type": "Point", "coordinates": [ -90.194633, 38.63165 ] } },
{ "type": "Feature", "properties": { "Module": "FoodFacility", "Stage": "Active", "Status": "Permitted", "business_": "37936", "name": "Ben & Jerrys", "address": "405 S Broadway", "city": "St Louis", "state": "MO", "postal_co": "63102", "PhoneDayN": "306-9400", "PhoneDayE": null, "addrtype": "Permitted", "addrlocat": "street_address" }, "geometry": { "type": "Point", "coordinates": [ -90.1913341, 38.6222494 ] } },
{ "type": "Feature", "properties": { "Module": "FoodFacility", "Stage": "Active", "Status": "Permitted", "business_": "38322", "name": "Ben & Jerry's", "address": "405 S BROADWAY", "city": "St Louis", "state": "MO", "postal_co": "63102", "PhoneDayN": "306-9400", "PhoneDayE": null, "addrtype": "Permitted", "addrlocat": "street_address" }, "geometry": { "type": "Point", "coordinates": [ -90.1913341, 38.6222494 ] } },
{ "type": "Feature", "properties": { "Module": "FoodFacility", "Stage": "Active", "Status": "Permitted", "business_": "38322", "name": "Ben & Jerry's", "address": "405 S BROADWAY", "city": "St Louis", "state": "MO", "postal_co": "63102", "PhoneDayN": "314-9400", "PhoneDayE": null, "addrtype": "Permitted", "addrlocat": "street_address" }, "geometry": { "type": "Point", "coordinates": [ -90.1913341, 38.6222494 ] } },
{ "type": "Feature", "properties": { "Module": "FoodFacility", "Stage": "Active", "Status": "Permitted", "business_": "38322", "name": "Ben & Jerry's", "address": "405 S Broadway", "city": "St Louis", "state": "MO", "postal_co": "63102", "PhoneDayN": "306-9400", "PhoneDayE": null, "addrtype": "Permitted", "addrlocat": "street_address" }, "geometry": { "type": "Point", "coordinates": [ -90.1913341, 38.6222494 ] } },
{ "type": "Feature", "properties": { "Module": "FoodFacility", "Stage": "Active", "Status": "Permitted", "business_": "38322", "name": "Ben & Jerry's", "address": "405 S Broadway", "city": "St Louis", "state": "MO", "postal_co": "63102", "PhoneDayN": "306-9400", "PhoneDayE": null, "addrtype": "Permitted", "addrlocat": "street_address" }, "geometry": { "type": "Point", "coordinates": [ -90.1913341, 38.6222494 ] } },
{ "type": "Feature", "properties": { "Module": "FoodFacility", "Stage": "Active", "Status": "Permitted", "business_": "38322", "name": "Ben & Jerry's", "address": "405 S BROADWAY", "city": "St Louis", "state": "MO", "postal_co": "63102", "PhoneDayN": "306-9400", "PhoneDayE": null, "addrtype": "Permitted", "addrlocat": "street_address" }, "geometry": { "type": "Point", "coordinates": [ -90.1913341, 38.6222494 ] } },
{ "type": "Feature", "properties": { "Module": "FoodFacility", "Stage": "Active", "Status": "Permitted", "business_": "38322", "name": "Ben & Jerry's", "address": "405 S Broadway", "city": "St Louis", "state": "MO", "postal_co": "63102", "PhoneDayN": "306-9400", "PhoneDayE": null, "addrtype": "Permitted", "addrlocat": "street_address" }, "geometry": { "type": "Point", "coordinates": [ -90.1913341, 38.6222494 ] } },
{ "type": "Feature", "properties": { "Module": "FoodFacility", "Stage": "Active", "Status": "Permitted", "business_": "37983", "name": "Ben & Jerry's Mobile Trailer", "address": "405 S Broadway", "city": "St Louis", "state": "MO", "postal_co": "63122", "PhoneDayN": "306-9400", "PhoneDayE": null, "addrtype": "Permitted", "addrlocat": "street_address" }, "geometry": { "type": "Point", "coordinates": [ -90.1913341, 38.6222494 ] } },
{ "type": "Feature", "properties": { "Module": "FoodFacility", "Stage": "Active", "Status": "Permitted", "business_": "20170", "name": "Benedict Joseph Labre Ctr", "address": "3863 CLEVELAND", "city": "St Louis", "state": "MO", "postal_co": "63110", "PhoneDayN": "664-3927", "PhoneDayE": null, "addrtype": "Permitted", "addrlocat": "street_address" }, "geometry": { "type": "Point", "coordinates": [ -90.245653, 38.611194 ] } },
{ "type": "Feature", "properties": { "Module": "FoodFacility", "Stage": "Active", "Status": "Permitted", "business_": "1400089", "name": "Benton Park Cafe & Coffee Bar", "address": "1900 Arsenal", "city": "St Louis", "state": "MO", "postal_co": "63118", "PhoneDayN": "771-7200", "PhoneDayE": null, "addrtype": "Permitted", "addrlocat": "street_address" }, "geometry": { "type": "Point", "coordinates": [ -90.217936, 38.596895 ] } },
{ "type": "Feature", "properties": { "Module": "FoodFacility", "Stage": "Active", "Status": "Exempt", "business_": "#N\/A", "name": "Berix Coffee House", "address": "4307 Duke", "city": "St Louis", "state": "MO", "postal_co": "63116", "PhoneDayN": null, "PhoneDayE": null, "addrtype": "#N\/A", "addrlocat": "street_address" }, "geometry": { "type": "Point", "coordinates": [ -90.2691819, 38.5802318 ] } },
{ "type": "Feature", "properties": { "Module": "FoodFacility", "Stage": "Active", "Status": "Permitted", "business_": "19388", "name": "Bernard Care Center", "address": "4335 West Pine", "city": "St Louis", "state": "MO", "postal_co": "63108", "PhoneDayN": "371-0200", "PhoneDayE": null, "addrtype": "Permitted", "addrlocat": "street_address" }, "geometry": { "type": "Point", "coordinates": [ -90.2521174, 38.6400988 ] } },
{ "type": "Feature", "properties": { "Module": "FoodFacility", "Stage": "Active", "Status": "Permitted", "business_": "MLEN-9CTSP9", "name": "Bernie's Place", "address": "1930-32 N 9th", "city": "St Louis", "state": "MO", "postal_co": "63102", "PhoneDayN": "421-9922", "PhoneDayE": null, "addrtype": "Permitted", "addrlocat": "street_address" }, "geometry": { "type": "Point", "coordinates": [ -90.1945288, 38.6262273 ] } },
{ "type": "Feature", "properties": { "Module": "FoodFacility", "Stage": "Active", "Status": "Permitted", "business_": "1201155", "name": "Better Bakery Cafe", "address": "4127 SHREVE", "city": "St Louis", "state": "MO", "postal_co": "63115", "PhoneDayN": "389-2501", "PhoneDayE": null, "addrtype": "Permitted", "addrlocat": "street_address" }, "geometry": { "type": "Point", "coordinates": [ -90.2425433, 38.6782766 ] } },
{ "type": "Feature", "properties": { "Module": "FoodFacility", "Stage": "Active", "Status": "Permitted", "business_": "PMAY-93QKTF", "name": "Better Learning Communities Academy", "address": "2153 Salisbury C", "city": "St Louis", "state": "MO", "postal_co": "63106", "PhoneDayN": "436-2603", "PhoneDayE": null, "addrtype": "Permitted", "addrlocat": "street_address" }, "geometry": { "type": "Point", "coordinates": [ -90.2060285, 38.6594737 ] } },
{ "type": "Feature", "properties": { "Module": "FoodFacility", "Stage": "Active", "Status": "Permitted", "business_": "15566", "name": "Beulah's Red Velvet Lounge", "address": "4769 Dr M L King", "city": "St Louis", "state": "MO", "postal_co": "63113", "PhoneDayN": "652-6154", "PhoneDayE": null, "addrtype": "Permitted", "addrlocat": "street_address" }, "geometry": { "type": "Point", "coordinates": [ -90.2826449, 38.5751649 ] } },
{ "type": "Feature", "properties": { "Module": "FoodFacility", "Stage": "Active", "Status": "Permitted", "business_": "20822", "name": "Beyond Broadway", "address": "112 Sidney", "city": "St Louis", "state": "MO", "postal_co": "63104", "PhoneDayN": "776-5929", "PhoneDayE": null, "addrtype": "Permitted", "addrlocat": "street_address" }, "geometry": { "type": "Point", "coordinates": [ -90.2009283, 38.5972123 ] } },
{ "type": "Feature", "properties": { "Module": "FoodFacility", "Stage": "Active", "Status": "Permitted", "business_": "1201027", "name": "Big City Subs And Grill", "address": "2906 MARKET", "city": "St Louis", "state": "MO", "postal_co": "63103", "PhoneDayN": "652-3354", "PhoneDayE": null, "addrtype": "Permitted", "addrlocat": "street_address" }, "geometry": { "type": "Point", "coordinates": [ -90.2219582, 38.631081 ] } },
{ "type": "Feature", "properties": { "Module": "FoodFacility", "Stage": "Active", "Status": "Permitted", "business_": "20967", "name": "Big Daddy's", "address": "1000 SIDNEY", "city": "St Louis", "state": "MO", "postal_co": "63104", "PhoneDayN": "771-3066", "PhoneDayE": null, "addrtype": "Permitted", "addrlocat": "street_address" }, "geometry": { "type": "Point", "coordinates": [ -90.2100679, 38.6013169 ] } },
{ "type": "Feature", "properties": { "Module": "FoodFacility", "Stage": "Active", "Status": "Permitted", "business_": "10100010", "name": "Big Daddy's On The Landing", "address": "118 Morgan St", "city": "St Louis", "state": "MO", "postal_co": "63102", "PhoneDayN": "621-6700", "PhoneDayE": null, "addrtype": "Permitted", "addrlocat": "street_address" }, "geometry": { "type": "Point", "coordinates": [ -90.1838279, 38.6307008 ] } },
{ "type": "Feature", "properties": { "Module": "FoodFacility", "Stage": "Active", "Status": "Permitted", "business_": "37601", "name": "Big Ed's Chili Mac", "address": "510 Pine", "city": "St Louis", "state": "MO", "postal_co": "63101", "PhoneDayN": "421-9040", "PhoneDayE": null, "addrtype": "Permitted", "addrlocat": "street_address" }, "geometry": { "type": "Point", "coordinates": [ -90.1900297, 38.6269231 ] } },
{ "type": "Feature", "properties": { "Module": "FoodFacility", "Stage": "Active", "Status": "Permitted", "business_": "11000087", "name": "Big Moma's Eatery & Banquet", "address": "2820 Goodfellow Blvd", "city": "St Louis", "state": "MO", "postal_co": "63135", "PhoneDayN": "236-1113", "PhoneDayE": null, "addrtype": "Permitted", "addrlocat": "street_address" }, "geometry": { "type": "Point", "coordinates": [ -90.274509, 38.678811 ] } },
{ "type": "Feature", "properties": { "Module": "FoodFacility", "Stage": "Active", "Status": "Permitted", "business_": "KHUS-9MSPHL", "name": "Big Will Combo's & More", "address": "1514 Hodiamont", "city": "SAINT LOUIS", "state": "MO", "postal_co": "63112", "PhoneDayN": null, "PhoneDayE": null, "addrtype": "Permitted", "addrlocat": "street_address" }, "geometry": { "type": "Point", "coordinates": [ -90.284668, 38.675673 ] } },
{ "type": "Feature", "properties": { "Module": "FoodFacility", "Stage": "Active", "Status": "Permitted", "business_": "18640", "name": "Biggies", "address": "3332 WATSON 34", "city": "St Louis", "state": "MO", "postal_co": "63139", "PhoneDayN": "781-0061", "PhoneDayE": null, "addrtype": "Permitted", "addrlocat": "street_address" }, "geometry": { "type": "Point", "coordinates": [ -90.2991479, 38.6016556 ] } },
{ "type": "Feature", "properties": { "Module": "FoodFacility", "Stage": "Active", "Status": "Permitted", "business_": "21146", "name": "Bikers Corner Rest & Lounge", "address": "1924 N VANDEVENTER", "city": "St Louis", "state": "MO", "postal_co": "63113", "PhoneDayN": "535-5250", "PhoneDayE": null, "addrtype": "Permitted", "addrlocat": "street_address" }, "geometry": { "type": "Point", "coordinates": [ -90.2297075, 38.6535185 ] } },
{ "type": "Feature", "properties": { "Module": "FoodFacility", "Stage": "Active", "Status": "Permitted", "business_": "KHUS-9P3MHR", "name": "Bikram Hot Yoga Midwest", "address": "3121 S Grand Ave", "city": "SAINT LOUIS", "state": "MO", "postal_co": "63118", "PhoneDayN": "771-1866", "PhoneDayE": null, "addrtype": "Permitted", "addrlocat": "street_address" }, "geometry": { "type": "Point", "coordinates": [ -90.242727, 38.602177 ] } },
{ "type": "Feature", "properties": { "Module": "FoodFacility", "Stage": "Active", "Status": "Permitted", "business_": "MWHN-9A7N59", "name": "Bi-Lingual Intl Assistant Svc", "address": "1329 Macklind Ave", "city": "SAINT LOUIS", "state": "MO", "postal_co": "63110", "PhoneDayN": null, "PhoneDayE": null, "addrtype": "Permitted", "addrlocat": "street_address" }, "geometry": { "type": "Point", "coordinates": [ -90.2759421, 38.6242376 ] } },
{ "type": "Feature", "properties": { "Module": "FoodFacility", "Stage": "Active", "Status": "Permitted", "business_": "MWHN-92YSNK", "name": "Billies Fine Food", "address": "1802 S Broadway", "city": "St Louis", "state": "MO", "postal_co": "63104", "PhoneDayN": "621-0848", "PhoneDayE": null, "addrtype": "Permitted", "addrlocat": "street_address" }, "geometry": { "type": "Point", "coordinates": [ -90.2001805, 38.6079116 ] } },
{ "type": "Feature", "properties": { "Module": "FoodFacility", "Stage": "Active", "Status": "Permitted", "business_": "19837", "name": "Billy Burke's Restaurant", "address": "1915 Billups Ave", "city": "St Louis", "state": "MO", "postal_co": "63113", "PhoneDayN": "531-3070", "PhoneDayE": null, "addrtype": "Permitted", "addrlocat": "street_address" }, "geometry": { "type": "Point", "coordinates": [ -90.2416596, 38.6581735 ] } },
{ "type": "Feature", "properties": { "Module": "FoodFacility", "Stage": "Active", "Status": "Permitted", "business_": "36015", "name": "Bi-Lo Clara Mkt & Pkg Liquor", "address": "1354 Clara Ave", "city": "St Louis", "state": "MO", "postal_co": "63104", "PhoneDayN": "367-1640", "PhoneDayE": null, "addrtype": "Permitted", "addrlocat": "street_address" }, "geometry": { "type": "Point", "coordinates": [ -90.278368, 38.666292 ] } },
{ "type": "Feature", "properties": { "Module": "FoodFacility", "Stage": "Active", "Status": "Permitted", "business_": "38187", "name": "Bi-Lo Mkt & Pkg Liquor", "address": "5440 Dr M L King", "city": "St Louis", "state": "MO", "postal_co": "63112", "PhoneDayN": "367-1534", "PhoneDayE": null, "addrtype": "Permitted", "addrlocat": "street_address" }, "geometry": { "type": "Point", "coordinates": [ -90.271861, 38.6679989 ] } },
{ "type": "Feature", "properties": { "Module": "FoodFacility", "Stage": "Active", "Status": "Permitted", "business_": "18100", "name": "Bing Lau Chop Suey", "address": "3101 N GRAND", "city": "St Louis", "state": "MO", "postal_co": "63107", "PhoneDayN": "622-6228", "PhoneDayE": null, "addrtype": "Permitted", "addrlocat": "street_address" }, "geometry": { "type": "Point", "coordinates": [ -90.2189734, 38.6585536 ] } },
{ "type": "Feature", "properties": { "Module": "FoodFacility", "Stage": "Active", "Status": "Permitted", "business_": "4179", "name": "Bishop Dubourg High School Caf", "address": "5850 Eichelberger", "city": "St Louis", "state": "MO", "postal_co": "63109", "PhoneDayN": "832-3030", "PhoneDayE": null, "addrtype": "Permitted", "addrlocat": "street_address" }, "geometry": { "type": "Point", "coordinates": [ -90.2959012, 38.5803787 ] } },
{ "type": "Feature", "properties": { "Module": "FoodFacility", "Stage": "Active", "Status": "Permitted", "business_": "7600085", "name": "Bissinger's", "address": "32 - 34 MARYLAND Ave", "city": "St Louis", "state": "MO", "postal_co": "63108", "PhoneDayN": "367-9750", "PhoneDayE": null, "addrtype": "Permitted", "addrlocat": "street_address" }, "geometry": { "type": "Point", "coordinates": [ -90.2628343, 38.6449278 ] } },
{ "type": "Feature", "properties": { "Module": "FoodFacility", "Stage": "Active", "Status": "Permitted", "business_": "KHUS-9HQQ34", "name": "Bittersweet Artisan Truffles @ Mt Tabor UCC", "address": "6520 Arsenal St", "city": "SAINT LOUIS", "state": "MO", "postal_co": "63139", "PhoneDayN": "645-9025", "PhoneDayE": null, "addrtype": "Permitted", "addrlocat": "street_address" }, "geometry": { "type": "Point", "coordinates": [ -90.2999636, 38.6079306 ] } },
{ "type": "Feature", "properties": { "Module": "FoodFacility", "Stage": "Active", "Status": "Permitted", "business_": "1400431", "name": "Bixby's", "address": "5656 Lindell", "city": "St Louis", "state": "MO", "postal_co": "63112", "PhoneDayN": "361-7313", "PhoneDayE": null, "addrtype": "Permitted", "addrlocat": "street_address" }, "geometry": { "type": "Point", "coordinates": [ -90.2860737, 38.6461286 ] } },
{ "type": "Feature", "properties": { "Module": "FoodFacility", "Stage": "Active", "Status": "Permitted", "business_": "19855", "name": "Bj Hospital North Kitchen - Northern Lights Cafe @ CAM", "address": "216 S KINGSHIGHWAY", "city": "St Louis", "state": "MO", "postal_co": null, "PhoneDayN": "454-7150", "PhoneDayE": null, "addrtype": "Permitted", "addrlocat": "street_address" }, "geometry": { "type": "Point", "coordinates": [ -90.264368, 38.638751 ] } },
{ "type": "Feature", "properties": { "Module": "FoodFacility", "Stage": "Active", "Status": "Permitted", "business_": "20999", "name": "Bjt Enterprise", "address": "3761 LEE", "city": "St Louis", "state": "MO", "postal_co": "63107", "PhoneDayN": "(31-0242", "PhoneDayE": null, "addrtype": "Permitted", "addrlocat": "street_address" }, "geometry": { "type": "Point", "coordinates": [ -90.2163039, 38.6675201 ] } },
{ "type": "Feature", "properties": { "Module": "FoodFacility", "Stage": "Active", "Status": "Permitted", "business_": "MLEN-97FSMT", "name": "Black Bear Co-Op", "address": "2639 Cherokee", "city": "St Louis", "state": "MO", "postal_co": "63118", "PhoneDayN": "771-2236", "PhoneDayE": null, "addrtype": "Permitted", "addrlocat": "street_address" }, "geometry": { "type": "Point", "coordinates": [ -90.2270825, 38.593748 ] } },
{ "type": "Feature", "properties": { "Module": "FoodFacility", "Stage": "Active", "Status": "Permitted", "business_": "MWHN-9BULZ8", "name": "Black Box Theatre", "address": "501-19 N Grand", "city": "St Louis", "state": "MO", "postal_co": "63103", "PhoneDayN": "289-1523", "PhoneDayE": null, "addrtype": "Permitted", "addrlocat": "street_address" }, "geometry": { "type": "Point", "coordinates": [ -90.2345409, 38.635726 ] } },
{ "type": "Feature", "properties": { "Module": "FoodFacility", "Stage": "Active", "Status": "Permitted", "business_": "17280", "name": "Black Derby Saloon", "address": "3701 S KINGSHIGHWAY", "city": "St Louis", "state": "MO", "postal_co": "63109", "PhoneDayN": "351-7575", "PhoneDayE": null, "addrtype": "Permitted", "addrlocat": "street_address" }, "geometry": { "type": "Point", "coordinates": [ -90.272629, 38.593076 ] } },
{ "type": "Feature", "properties": { "Module": "FoodFacility", "Stage": "Active", "Status": "Permitted", "business_": "KHUS-9JGJWB", "name": "Blanca Mexican Restaurant", "address": "2737 Cherokee St", "city": "SAINT LOUIS", "state": "MO", "postal_co": "63118", "PhoneDayN": "776-2315", "PhoneDayE": null, "addrtype": "Permitted", "addrlocat": "street_address" }, "geometry": { "type": "Point", "coordinates": [ -90.2292245, 38.5937617 ] } },
{ "type": "Feature", "properties": { "Module": "FoodFacility", "Stage": "Active", "Status": "Permitted", "business_": "MWIS-98NQRV", "name": "Blank Space", "address": "2847 Cherokee", "city": "SAINT LOUIS", "state": "MO", "postal_co": "63105", "PhoneDayN": "651-3021", "PhoneDayE": null, "addrtype": "Permitted", "addrlocat": "street_address" }, "geometry": { "type": "Point", "coordinates": [ -90.2318019, 38.5942616 ] } },
{ "type": "Feature", "properties": { "Module": "FoodFacility", "Stage": "Active", "Status": "Permitted", "business_": "MWHN-8XFNKY", "name": "BLE", "address": "2031 Bremen", "city": "St Louis", "state": "MO", "postal_co": "63107", "PhoneDayN": null, "PhoneDayE": null, "addrtype": "Permitted", "addrlocat": "street_address" }, "geometry": { "type": "Point", "coordinates": [ -90.2049111, 38.662045 ] } },
{ "type": "Feature", "properties": { "Module": "FoodFacility", "Stage": "Active", "Status": "Permitted", "business_": "MWHN-8XFNS8", "name": "BLE Bennie Elder", "address": "2031 Bremen", "city": "St Louis", "state": "MO", "postal_co": "63107", "PhoneDayN": null, "PhoneDayE": null, "addrtype": "Permitted", "addrlocat": "street_address" }, "geometry": { "type": "Point", "coordinates": [ -90.2049111, 38.662045 ] } },
{ "type": "Feature", "properties": { "Module": "FoodFacility", "Stage": "Active", "Status": "Permitted", "business_": "MLEN-9G9NHS", "name": "Blissful Vapors", "address": "4240 A Manchester", "city": "SAINT LOUIS", "state": "MO", "postal_co": "63146", "PhoneDayN": null, "PhoneDayE": null, "addrtype": "Permitted", "addrlocat": "street_address" }, "geometry": { "type": "Point", "coordinates": [ -90.2556836, 38.6269408 ] } },
{ "type": "Feature", "properties": { "Module": "FoodFacility", "Stage": "Active", "Status": "Permitted", "business_": "11000072", "name": "Blondie's Coffee And Wine Bar", "address": "1301 WASHINGTON", "city": "St Louis", "state": "MO", "postal_co": "63103", "PhoneDayN": "406-6755", "PhoneDayE": null, "addrtype": "Permitted", "addrlocat": "street_address" }, "geometry": { "type": "Point", "coordinates": [ -90.1983515, 38.6324587 ] } },
{ "type": "Feature", "properties": { "Module": "FoodFacility", "Stage": "Active", "Status": "Permitted", "business_": "1200271", "name": "Blue Note Lounge 1St Flr", "address": "1401 CLARK", "city": "St Louis", "state": "MO", "postal_co": "63103", "PhoneDayN": "622-5400", "PhoneDayE": null, "addrtype": "Permitted", "addrlocat": "street_address" }, "geometry": { "type": "Point", "coordinates": [ -90.2026783, 38.6268402 ] } },
{ "type": "Feature", "properties": { "Module": "FoodFacility", "Stage": "Active", "Status": "Permitted", "business_": "1200269", "name": "Blue Note Lounge 2nd Floor", "address": "1401 CLARK", "city": "St Louis", "state": "MO", "postal_co": "63103", "PhoneDayN": "622-5400", "PhoneDayE": null, "addrtype": "Permitted", "addrlocat": "street_address" }, "geometry": { "type": "Point", "coordinates": [ -90.2026783, 38.6268402 ] } },